id,ident,type,name,latitude_deg,longitude_deg,elevation_ft,continent,iso_country,iso_region,municipality,scheduled_service,gps_code,iata_code,local_code,home_link,wikipedia_link,keywords
41645,PK-0012,small_airport,Wateji Airstrip,24.8658,67.4096,149,AS,PK,PK-SD,Wateji,no,,,,,,
18642,K33M,small_airport,Water Valley Municipal Airport,34.16680145263670,-89.68620300292970,270,NA,US,US-MS,Water Valley,no,K33M,,33M,,,
307983,EGUK,closed,Waterbeach Airfield,52.281742,0.184532,19,EU,GB,GB-ENG,Waterbeach,no,,,,,https://en.wikipedia.org/wiki/RAF_Waterbeach,RAF Waterbeach
308225,AQ-0003,closed,González Videla Antarctic Base,-64.824,-62.857,1,AN,AQ,AQ-U-A,Waterboat Point,no,SCGB,,,,https://en.wikipedia.org/wiki/Gonz%C3%A1lez_Videla_Antarctic_Base,
22005,ME90,seaplane_base,Little Ossipee Lake Seaplane Base,43.61309814453130,-70.69640350341800,311,NA,US,US-ME,Waterboro Center,no,ME90,,ME90,,,
8257,1CT3,heliport,St Mary's Heliport,41.55179977416990,-73.03700256347660,300,NA,US,US-CT,Waterbury,no,1CT3,,1CT3,,,
22675,N41,small_airport,Waterbury Airport,41.633399963378900,-73.04679870605470,850,NA,US,US-CT,Waterbury,no,N41,,N41,,,
21373,KWF,seaplane_base,Waterfall Seaplane Base,55.296298980700000,-133.242996216,,NA,US,US-AK,Waterfall,no,KWF,KWF,KWF,,https://en.wikipedia.org/wiki/Waterfall_Seaplane_Base,
9055,25JY,heliport,Heli-Ray Heliport,39.72019958496090,-74.84609985351560,160,NA,US,US-NJ,Waterford,no,25JY,,25JY,,,
2539,EIWF,medium_airport,Waterford Airport,52.187198638916000,-7.0869598388671900,119,EU,IE,IE-WD,Waterford,yes,EIWF,WAT,,http://flywaterford.com/,https://en.wikipedia.org/wiki/Waterford_Airport,
18289,JY30,heliport,Breezy Acres Farm Heliport,39.728599548339800,-74.83660125732420,142,NA,US,US-NJ,Waterford,no,JY30,,JY30,,,
7204,0IA3,small_airport,Hawkeye Airport,42.43470001220700,-92.3280029296875,883,NA,US,US-IA,Waterloo,no,0IA3,,0IA3,,,
7662,10IA,small_airport,Flyers Airport,42.41669845581060,-92.25019836425780,830,NA,US,US-IA,Waterloo,no,10IA,,10IA,,,
9254,29LL,heliport,Monroe County Ambulance Service Heliport,38.33919906616210,-90.1624984741211,630,NA,US,US-IL,Waterloo,no,29LL,,29LL,,,
9431,2IA4,heliport,Cmc At West Ninth Heliport,42.46099853515630,-92.34480285644530,922,NA,US,US-IA,Waterloo,no,2IA4,,2IA4,,,
9749,2SC5,small_airport,Ridgewood Air Airport,34.29169845581060,-82.05390167236330,560,NA,US,US-SC,Waterloo,no,2SC5,,2SC5,,,
10874,3WI2,small_airport,Tesmer Airport,43.152801513671900,-88.9845962524414,925,NA,US,US-WI,Waterloo,no,3WI2,,3WI2,,,
11362,4C2,small_airport,Walker/Rowe Waterloo Airport,41.43119812011720,-84.98159790039060,900,NA,US,US-IN,Waterloo,no,4C2,,4C2,,,
12733,5WI3,small_airport,Der Schwarzwald Airport,43.207801818847700,-89.01709747314450,925,NA,US,US-WI,Waterloo,no,5WI3,,5WI3,,,
17096,D93,small_airport,Airtrek Airport,42.850101470947300,-76.84970092773440,590,NA,US,US-NY,Waterloo,no,D93,,D93,,,
17707,IA29,heliport,Allen Memorial Hospital Heliport,42.52690124511720,-92.339599609375,899,NA,US,US-IA,Waterloo,no,IA29,,IA29,,,
17737,IA60,closed,Iowa Army Natl Guard Heliport,42.556097,-92.399902,866,NA,US,US-IA,Waterloo,no,,,,,,IA60
3375,KALO,medium_airport,Waterloo Regional Airport,42.557098388671900,-92.40029907226560,873,NA,US,US-IA,Waterloo,yes,KALO,ALO,ALO,,https://en.wikipedia.org/wiki/Waterloo_Regional_Airport,
12090,56LL,small_airport,Wade Airport,41.755001068115200,-88.77120208740230,810,NA,US,US-IL,Waterman,no,56LL,,56LL,,,
41279,ZA-0079,small_airport,Bergtop Airport,-22.917943954467800,29.457834243774400,2620,AF,ZA,ZA-NP,Waterpoort,no,,,,,,
13729,72MI,small_airport,Northwoods Airport,46.2859001159668,-89.27749633789060,1642,NA,US,US-MI,Watersmeet,no,72MI,,72MI,,,
11386,4CO1,heliport,Martin Heliport,39.499698638916000,-105.10600280761700,5718,NA,US,US-CO,Waterton,no,4CO1,,4CO1,,,
7518,0SD2,heliport,Prairie Lakes West Heliport,44.91109848022460,-97.11949920654300,1799,NA,US,US-SD,Watertown,no,0SD2,,0SD2,,,
12791,60NY,heliport,Samaritan Medical Center Heliport,43.972198486328100,-75.9083023071289,490,NA,US,US-NY,Watertown,no,60NY,,60NY,,,
13051,66WI,small_airport,J-3 Cub Field,43.07749938964840,-88.66290283203130,860,NA,US,US-WI,Watertown,no,66WI,,66WI,,,
17022,CT67,heliport,A J Oster Co. Heliport,41.6142997742,-73.0593032837,300,NA,US,US-CT,Watertown,no,CT67,,CT67,,,
3383,KART,medium_airport,Watertown International Airport,43.99190139770510,-76.02169799804690,325,NA,US,US-NY,Watertown,yes,KART,ART,ART,,https://en.wikipedia.org/wiki/Watertown_International_Airport,
3385,KATY,medium_airport,Watertown Regional Airport,44.91400146,-97.15470123,1749,NA,US,US-SD,Watertown,yes,KATY,ATY,ATY,,https://en.wikipedia.org/wiki/Watertown_Regional_Airport,
20980,KRYV,small_airport,Watertown Municipal Airport,43.16960144042970,-88.72319793701170,833,NA,US,US-WI,Watertown,no,KRYV,,RYV,,,
25968,WS74,small_airport,Al's Airway Airport,43.16310119628910,-88.82450103759770,825,NA,US,US-WI,Watertown,no,WS74,,WS74,,,
329077,1ME2,heliport,Maine General Medical Center-Waterville Heliport,44.566216,-69.64785,112,NA,US,US-ME,Waterville,no,1ME2,,1ME2,,,
9744,2S5,small_airport,Waterville Airport,47.65599822998050,-120.05599975585900,2645,NA,US,US-WA,Waterville,no,2S5,,2S5,,,
14575,82OH,small_airport,Rocky Ridge Airpark,41.5078010559082,-83.77130126953130,650,NA,US,US-OH,Waterville,no,82OH,,82OH,,,
786,CCW3,small_airport,Waterville / Kings County Municipal Airport,45.0518989563,-64.6517028809,119,NA,CA,CA-NS,Waterville,no,CCW3,,CCW3,,https://en.wikipedia.org/wiki/Waterville/Kings_County_Municipal_Airport,CW3
21385,KWVL,small_airport,Waterville Robert Lafleur Airport,44.5331993103,-69.6754989624,333,NA,US,US-ME,Waterville,no,KWVL,WVL,WVL,,https://en.wikipedia.org/wiki/Waterville_Robert_LaFleur_Airport,
10910,40C,small_airport,Watervliet Municipal Airport,42.20000076293950,-86.25,656,NA,US,US-MI,Watervliet,no,40C,,40C,,,
324449,MI87,heliport,Lakeland Hospital Watervliet Heliport,42.184834,-86.250543,667,NA,US,US-MI,Watervliet,no,MI87,,MI87,,,
30064,EGTI,closed,Leavesden Aerodrome,51.68920135498050,-0.4205560088157650,335,EU,GB,GB-ENG,Watford,no,EGTI,,,,,
29201,EGTR,small_airport,Elstree Airfield,51.6557998657,-0.325832992792,332,EU,GB,GB-ENG,Watford,no,EGTR,,,,,
20997,KS25,small_airport,Watford City Municipal Airport,47.79570007,-103.2539978,2111,NA,US,US-ND,Watford City,no,KS25,,S25,,,
331999,ND05,heliport,MCHS Hospital Heliport,47.803969,-103.26915,2083,NA,US,US-ND,Watford City,no,ND05,,ND05,,,
328077,ND25,small_airport,Prop Wash Field,48.064407,-102.907918,2340,NA,US,US-ND,Watford City,no,ND25,,ND25,,,
7949,15MN,small_airport,Tyler Farms Airport,45.26219940185550,-94.51069641113280,1185,NA,US,US-MN,Watkins,no,15MN,,15MN,,,
10012,32MN,small_airport,Don's Landing Field,45.36750030517580,-94.39939880371090,1140,NA,US,US-MN,Watkins,no,32MN,,32MN,,,
15682,9CO2,small_airport,Van Slyke Field,39.69609833,-104.4759979,5400,NA,US,US-CO,Watkins,no,9CO2,,9CO2,,,
46312,OA51,small_airport,Fighter Field Airport,40.206111,-83.228611,980,NA,US,US-OH,Watkins,no,OA51,,OA51,,,
12962,64NY,closed,Hemlock Run Airport,42.367298,-76.931097,1300,NA,US,US-NY,Watkins Glen,no,,,,,,64NY
23411,NY29,small_airport,Schuyler Airport,42.45199966430660,-76.9115982055664,870,NA,US,US-NY,Watkins Glen,no,NY29,,NY29,,,
20225,KJWG,small_airport,Watonga Regional Airport,35.86470032,-98.42079926,1550,NA,US,US-OK,Watonga,no,KJWG,,JWG,,,
334356,OL18,small_airport,Flying D Airport,35.788998,-98.597,1689,NA,US,US-OK,Watonga,no,OL18,,OL18,,,
1241,CKU7,small_airport,Watrous Airport,51.68713736,-105.362319946,1700,NA,CA,CA-SK,Watrous,no,CKU7,,CKU7,,https://en.wikipedia.org/wiki/Watrous_Airport,KU7
23293,NM75,small_airport,Doolittle Ranch Airport,35.8135986328125,-104.97000122070300,6550,NA,US,US-NM,Watrous,no,NM75,,NM75,,,
31401,FZJI,small_airport,Watsa Airport,3.016940116882320,29.559200286865200,3199,AF,CD,CD-OR,Watsa,no,FZJI,,,,,
13352,6LL8,closed,Songwood Inn Airport,40.792301,-87.725304,629,NA,US,US-IL,Watseka,no,,,,,,6LL8
15570,98LL,small_airport,Braden Farms Airport,40.799198150634800,-87.78359985351560,630,NA,US,US-IL,Watseka,no,98LL,,98LL,,,
18172,IS02,small_airport,Dietchweiler Airport,40.77840042114260,-87.79170227050780,640,NA,US,US-IL,Watseka,no,IS02,,IS02,,,
18241,IS89,heliport,Iroquois Memorial Hospital Heliport,40.7661018372,-87.73139953610000,677,NA,US,US-IL,Watseka,no,IS89,,IS89,,,
7089,0AR7,closed,Yancopin Airport,33.9501,-91.181198,150,NA,US,US-AR,Watson,no,,,,,,0AR7
7282,0LA9,small_airport,Rebel Field,30.586299896240200,-90.86150360107420,74,NA,US,US-LA,Watson,no,0LA9,,0LA9,,,
9763,2T2,small_airport,Percival Springs Airport,39.01390075683590,-88.53890228271480,550,NA,US,US-IL,Watson,no,2T2,,2T2,,,
21672,LS39,small_airport,Country Bend Airport,30.589399337768600,-90.9845962524414,49,NA,US,US-LA,Watson,no,LS39,,LS39,,,
22221,MO17,small_airport,Garst Airport,40.47919845581060,-95.64610290527340,905,NA,US,US-MO,Watson,no,MO17,,MO17,,,
1868,CYQH,medium_airport,Watson Lake Airport,60.11640167236330,-128.82200622558600,2255,NA,CA,CA-YT,Watson Lake,no,CYQH,YQH,,,https://en.wikipedia.org/wiki/Watson_Lake_Airport,
16596,CA65,heliport,Alta Vista Heliport,36.97050094604490,-121.86199951171900,480,NA,US,US-CA,Watsonville,no,CA65,,CA65,,,
16597,CA66,small_airport,Monterey Bay Academy Airport,36.90610122680660,-121.84300231933600,70,NA,US,US-CA,Watsonville,no,CA66,,CA66,,https://en.wikipedia.org/wiki/Monterey_Bay_Academy_Airport,
16818,CL99,heliport,Watsonville Community Hospital Heliport,36.939998626709000,-121.7760009765630,111,NA,US,US-CA,Watsonville,no,CL99,,CL99,,,
21384,KWVI,small_airport,Watsonville Municipal Airport,36.9356994629,-121.790000916,163,NA,US,US-CA,Watsonville,no,KWVI,WVI,WVI,,https://en.wikipedia.org/wiki/Watsonville_Municipal_Airport,
43840,LOIS,heliport,Swarovski Heliport,47.29471969604490,11.60016918182370,1818,EU,AT,AT-7,Wattens,no,,,,,,
327472,GB-0563,closed,RAF Watton Air Base,52.5621892,0.865384,,EU,GB,GB-ENG,Watton,no,,,,,,
9718,2PN0,small_airport,Strawberry Acres Airport,42.01530075073240,-79.81780242919920,1300,NA,US,US-PA,Wattsburg,no,2PN0,,2PN0,,,
18692,K3G1,small_airport,Erie County Airport,42.044498443603500,-79.85389709472660,1450,NA,US,US-PA,Wattsburg,no,K3G1,,3G1,,,
307290,AYWU,small_airport,Wau Airport,-7.345555555560000,146.718611111,3600,OC,PG,PG-SAN,Wau,no,AYWU,WUG,WAU,,"https://en.wikipedia.org/wiki/Wau_Airport,_Papua_New_Guinea",
30553,HSWW,medium_airport,Wau Airport,7.7258300781200000,27.9750003815,1529,AF,SS,SS-14,Wau,yes,HSWW,WUU,,,https://en.wikipedia.org/wiki/Wau_Airport,
21744,M49,seaplane_base,Jolly Fisherman Seaplane Base,47.143001556396500,-95.52890014648440,1499,NA,US,US-MN,Waubun,no,M49,,M49,,,
328221,YDFD,small_airport,Dexfield Park,-31.42166667,152.75833333,30,OC,AU,AU-NSW,Wauchope,no,YDFD,,,http://www.dexfieldpark.com,,
32738,YWAC,small_airport,Wauchope Airport,-20.640614,134.215276,1186,OC,AU,AU-NT,Wauchope,no,YWAC,WAU,,,,
19494,KCHN,small_airport,Wauchula Municipal Airport,27.51490020752,-81.880500793457,106,NA,US,US-FL,Wauchula,no,KCHN,,CHN,http://www.cityofwauchula.com/Pages/WauchulaFL_Airport/index,https://en.wikipedia.org/wiki/Main_Page,"FD06, F37"
14198,7LL1,heliport,Vista Medical Center West Heliport,42.35779953,-87.8656005859,700,NA,US,US-IL,Waukegan,no,7LL1,,7LL1,,,
14199,7LL2,heliport,Vista Medical Center-East Heliport,42.37860107421880,-87.83260345458980,624,NA,US,US-IL,Waukegan,no,7LL2,,7LL2,,,
13615,6WI8,heliport,Waukesha Memorial Hospital Heliport,43.01100158691410,-88.2427978515625,900,NA,US,US-WI,Waukesha,no,6WI8,,6WI8,,,
21288,KUES,small_airport,Waukesha County Airport,43.041000366211,-88.237098693848,911,NA,US,US-WI,Waukesha,no,KUES,UES,UES,https://www.waukeshacounty.gov/airport/,https://en.wikipedia.org/wiki/Waukesha_County_Airport,
23791,OK50,closed,Traynor Ranch Airport,36.3325,-97.893097,1220,NA,US,US-OK,Waukomis,no,,,,,,OK50
26323,Y01,small_airport,Waukon Municipal Airport,43.280498504639,-91.469497680664,1281,NA,US,US-IA,Waukon,no,Y01,UKN,Y01,,,
13498,6P3,small_airport,Waunakee Airport,43.1786994934082,-89.45130157470700,954,NA,US,US-WI,Waunakee,no,6P3,,6P3,,,
6572,00WI,small_airport,Northern Lite Airport,44.304298400878900,-89.05010223388670,860,NA,US,US-WI,Waupaca,no,00WI,,00WI,,,
12737,5WI7,heliport,Thedacare Medical Center Waupaca Heliport,44.345463,-89.076157,804,NA,US,US-WI,Waupaca,no,5WI7,,5WI7,,,Riverside Hospital Heliport
20813,KPCZ,small_airport,Waupaca Municipal Airport,44.33330154,-89.01979828,840,NA,US,US-WI,Waupaca,no,KPCZ,,PCZ,,,
25904,WS10,small_airport,Casey Lake Airport,44.40800094604490,-89.01589965820310,850,NA,US,US-WI,Waupaca,no,WS10,,WS10,,,
25703,WI07,small_airport,Waupun Airport,43.62220001220700,-88.76679992675780,940,NA,US,US-WI,Waupun,no,WI07,,WI07,,,
25969,WS75,heliport,Waupun Memorial Hospital Heliport,43.631401062,-88.74579620360000,910,NA,US,US-WI,Waupun,no,WS75,,WS75,,,
17023,CT68,heliport,Wauregan Heliport,41.75339889526370,-71.88760375976560,240,NA,US,US-CT,Wauregan,no,CT68,,CT68,,,
10197,36NE,small_airport,Frevert Airstrip,42.514198303222700,-97.58090209960940,1800,NA,US,US-NE,Wausa,no,36NE,,36NE,,,
7933,15FD,small_airport,Orange Hill Airport,30.65850067138670,-85.52989959716800,260,NA,US,US-FL,Wausau,no,15FD,,15FD,,,
9392,2FL0,small_airport,Crystal Village Airport,30.456899642944300,-85.68599700927730,113,NA,US,US-FL,Wausau,no,2FL0,,2FL0,,,
10876,3WI4,small_airport,Flying 'O' Airport,44.92359924316410,-89.40229797363280,1320,NA,US,US-WI,Wausau,no,3WI4,,3WI4,,,
12741,5WN8,small_airport,Knight Sky Airport,45.0323982239,-89.401802063,1475,NA,US,US-WI,Wausau,no,5WN8,,5WN8,,,
19326,KAUW,medium_airport,Wausau Downtown Airport,44.9262008667,-89.6266021729,1201,NA,US,US-WI,Wausau,no,KAUW,AUW,AUW,http://www.ci.wausau.wi.us/Departments/Airport/GeneralInformation.aspx,https://en.wikipedia.org/wiki/Wausau_Downtown_Airport,
25959,WS65,heliport,Aspirus Wausau Hospital Heliport,44.966863,-89.666795,1226,NA,US,US-WI,Wausau,no,WS65,,WS65,,,
6555,00OH,closed,Exit 3 Airport,41.590476,-84.141583,785,NA,US,US-OH,Wauseon,no,,,,,,"64D, 00OH"
30554,KCHC,closed,Wauseon Airport,41.53860092163090,-84.13310241699220,751,NA,US,US-OH,Wauseon,no,KCHC,,CHC,,,
21302,KUSE,small_airport,Fulton County Airport,41.61009979248050,-84.127197265625,779,NA,US,US-OH,Wauseon,no,KUSE,,USE,,,
45698,OH73,heliport,41 Heliport,41.538875,-84.131322,725,NA,US,US-OH,Wauseon,no,OH73,,OH73,,,
21422,KY50,small_airport,Wautoma Municipal Airport,44.04159927368160,-89.30449676513670,859,NA,US,US-WI,Wautoma,no,KY50,,Y50,,,
9858,2WI3,heliport,Milwaukee County Medical Complex Heliport,43.041500091552700,-88.02310180664060,835,NA,US,US-WI,Wauwatosa,no,2WI3,,2WI3,,,
30555,FAWR,small_airport,Wavecrest Airport,-32.589698791503900,28.51919937133790,89,AF,ZA,ZA-EC,Wavecrest,no,FAWR,,,,,
13777,73NE,small_airport,Bornmann Field,41.02669906616210,-96.53060150146480,1180,NA,US,US-NE,Waverly,no,73NE,,73NE,,,
16512,C25,small_airport,Waverly Municipal Airport,42.742000579834000,-92.50789642333980,992,NA,US,US-IA,Waverly,no,C25,,C25,,,
18379,K0M5,small_airport,Humphreys County Airport,36.116600036621100,-87.73819732666020,756,NA,US,US-TN,Waverly,no,K0M5,,0M5,,,
19762,KEOP,small_airport,Pike County Airport,39.166900634765600,-82.9281997680664,660,NA,US,US-OH,Waverly,no,KEOP,,EOP,,,
8315,1GE9,small_airport,Waverly Landing Airport,32.71440124511720,-84.71810150146480,675,NA,US,US-GA,Waverly Hall,no,1GE9,,1GE9,,,
316465,WAN,small_airport,Waverney Airport,-25.3563,141.9254,570,OC,AU,AU-QLD,Waverney,no,,WAN,,,,
316464,AYWF,small_airport,Wawoi Falls Airport,-6.9523,142.6557,370,OC,PG,PG-WPD,Wavoi Falls,no,AYWF,WAJ,WWF,,,Wavwoi Falls
320440,CA-0614,closed,Wawa Lake Water Aerodrome,48,-84.760001,941,NA,CA,CA-ON,Wawa,no,,,NG8,,,Michipicoten
1971,CYXZ,medium_airport,Wawa Airport,47.96670150756840,-84.78669738769530,942,NA,CA,CA-ON,Wawa,no,CYXZ,YXZ,,,https://en.wikipedia.org/wiki/Wawa_Airport,
42150,MHWW,small_airport,Wawina Airport,15.41611099243160,-84.4736099243164,19,NA,HN,HN-GD,Wawina,no,MHWW,,,,,
41412,WAAL,small_airport,Ponggaluku Airport,-4.3166670799255,122.46666717529,43,AS,ID,ID-SG,Wawooru-Celebes Island,no,WAWL,,,,,WAAL
1246,CKV7,small_airport,Wawota Airport,49.8944823433,-102.03045845,2168,NA,CA,CA-SK,Wawota,no,CKV7,,CKV7,,https://en.wikipedia.org/wiki/Wawota_Airport,KV7
6628,01TX,small_airport,Mims Farm Ultralightport,32.38759994506840,-96.87750244140630,610,NA,US,US-TX,Waxahachie,no,01TX,,01TX,,,
6685,02TE,heliport,Baylor Medical Center Heliport,32.39540100097660,-96.86419677734380,560,NA,US,US-TX,Waxahachie,no,02TE,,02TE,,,
9086,25XS,small_airport,O'Brien Airpark,32.48649978637700,-96.84639739990230,650,NA,US,US-TX,Waxahachie,no,25XS,,25XS,,,
11892,51TE,small_airport,Barstool Ranch Airport,32.470192,-97.787119,546,NA,US,US-TX,Waxahachie,no,51TE,,51TE,,,
12022,54TA,small_airport,George P Shanks Airport,32.29970169067380,-96.87329864501950,610,NA,US,US-TX,Waxahachie,no,54TA,,54TA,,,
12798,60TA,closed,Air Ranch Estates Airport,32.3251,-96.947502,670,NA,US,US-TX,Waxahachie,no,,,,,,60TA
24768,TA60,small_airport,Hurn Airport,32.3942985534668,-96.77940368652340,555,NA,US,US-TX,Waxahachie,no,TA60,,TA60,,,
24880,TE72,closed,Haven Field,32.327099,-96.840201,595,NA,US,US-TX,Waxahachie,no,,,,,,TE72
6945,07NC,small_airport,Hawks Meadow Airport,34.83319854736330,-80.7511978149414,625,NA,US,US-NC,Waxhaw,no,07NC,,07NC,,,
330672,20NR,heliport,CHS Waxhaw Heliport,34.963055,-80.7635,588,NA,US,US-NC,Waxhaw,no,20NR,,20NR,,,
9602,2NC1,small_airport,Hawk's Knoll Airport,34.997398376464800,-80.8009033203125,695,NA,US,US-NC,Waxhaw,no,2NC1,,2NC1,,,
20611,KN52,small_airport,Jaars Townsend Airport,34.8638,-80.748001,602,NA,US,US-NC,Waxhaw,no,,,N52,,,NC18
17521,GA47,small_airport,Bivins Airport,31.185199737548800,-82.27349853515630,134,NA,US,US-GA,Waycross,no,GA47,,GA47,,,
17533,GA60,heliport,Memorial Satilla Health Heliport,31.224215,-82.347642,40,NA,US,US-GA,Waycross,no,GA60,,GA60,,,Satilla Regional Medical Center
19341,KAYS,small_airport,Waycross Ware County Airport,31.2490997314,-82.39550018310000,142,NA,US,US-GA,Waycross,no,KAYS,AYS,AYS,,https://en.wikipedia.org/wiki/Waycross-Ware_County_Airport,
10948,41C,small_airport,Calkins Field,42.69169998168950,-85.6458969116211,740,NA,US,US-MI,Wayland,no,41C,,41C,,,
11293,49MI,heliport,Tegethoff Heliport,42.638301849365200,-85.58439636230470,770,NA,US,US-MI,Wayland,no,49MI,,49MI,,,
13436,6NJ3,heliport,Wayne Office Helistop,40.97930145263670,-74.2509994506836,406,NA,US,US-NJ,Wayne,no,6NJ3,,6NJ3,,,
20324,KLCG,small_airport,Wayne Municipal Airport,42.24190139770510,-96.98139953613280,1431,NA,US,US-NE,Wayne,no,KLCG,,LCG,,,
8140,19IS,small_airport,Skillet Fork Farm Airport,38.2958984375,-88.55699920654300,430,NA,US,US-IL,Wayne City,no,19IS,,19IS,,,
9413,2GE1,heliport,Burke County Hospital Heliport,33.08440017700200,-82.01309967041020,264,NA,US,US-GA,Waynesboro,no,2GE1,,2GE1,,,
10470,3GA7,small_airport,Rhodes Air Ranch Airport,33.162498474121100,-81.76830291748050,195,NA,US,US-GA,Waynesboro,no,3GA7,,3GA7,,,
17524,GA51,heliport,Vogtle Electric Generating Plant Heliport,33.12519836425780,-81.74539947509770,130,NA,US,US-GA,Waynesboro,no,GA51,,GA51,,,
17591,GE30,small_airport,Sandy Hill Airport,33.221099853515600,-81.99530029296880,310,NA,US,US-GA,Waynesboro,no,GE30,,GE30,,,
18613,K2R0,small_airport,Waynesboro Municipal Airport,31.645999908447300,-88.63480377197270,164,NA,US,US-MS,Waynesboro,no,K2R0,,2R0,,,
19426,KBXG,small_airport,Burke County Airport,33.04130172729490,-82.00270080566410,302,NA,US,US-GA,Waynesboro,no,KBXG,,BXG,,,
24165,PN58,small_airport,Bittner/Whitsel Airport,39.742698669433600,-77.52680206298830,760,NA,US,US-PA,Waynesboro,no,PN58,,PN58,,,
25569,W13,small_airport,Eagle's Nest Airport,38.07709884643560,-78.94419860839840,1437,NA,US,US-VA,Waynesboro,no,W13,,W13,,,
21369,KWAY,small_airport,Greene County Airport,39.90010071,-80.13310242,1069,NA,US,US-PA,Waynesburg,no,KWAY,WAY,WAY,,https://en.wikipedia.org/wiki/Greene_County_Airport_(Pennsylvania),
9675,2OH9,small_airport,Caesar Creek Soaring Club Gliderport,39.4767,-84.093803,940,NA,US,US-OH,Waynesville,no,2OH9,,2OH9,,,
9676,2OI2,small_airport,Air Jordan Airport,39.561100006103500,-84.0519027709961,920,NA,US,US-OH,Waynesville,no,2OI2,,2OI2,,,
10917,40I,small_airport,Red Stewart Airfield,39.50529861450200,-84.12190246582030,955,NA,US,US-OH,Waynesville,no,40I,,40I,,,
45712,43OA,small_airport,Anderson Airfield,39.581422,-84.092783,940,NA,US,US-OH,Waynesville,no,43OA,,43OA,,,Bellbrook
45505,MU78,small_airport,Taylor Field,37.847964,-92.188933,1022,NA,US,US-MO,Waynesville,no,MU78,,MU78,,,
8380,1K5,small_airport,Waynoka Municipal Airport,36.56669998168950,-98.85230255126950,1543,NA,US,US-OK,Waynoka,no,1K5,,1K5,,,
13550,6TE7,small_airport,Mc Neill Ranch Airport,34.837600708,-101.57900238,3413,NA,US,US-TX,Wayside,no,6TE7,,6TE7,,,
25925,WS31,small_airport,Otto-Gibbons Airport,44.277801513671900,-87.94450378417970,850,NA,US,US-WI,Wayside,no,WS31,,WS31,,,
322803,US-0522,seaplane_base,Wayzata Bay Landing Seaplane Base,44.9538889,-93.503889,930,NA,US,US-MN,Wayzata,no,MN37,,MN37,,,
316476,AYXW,small_airport,Weam Airport,-8.6184,141.1381,50,OC,PG,PG-WPD,Weam,no,AYXW,WEP,WEAM,,,
7010,08TX,small_airport,Cross Wind Airport,32.85820007324220,-97.74749755859380,1040,NA,US,US-TX,Weatherford,no,08TX,,08TX,,,
9775,2TA9,small_airport,A M I G O For Christ Airport,32.660400390625,-97.84200286865230,840,NA,US,US-TX,Weatherford,no,2TA9,,2TA9,,,
9803,2TS7,heliport,Jamak Fabrication Heliport,32.78120040893560,-97.81639862060550,1050,NA,US,US-TX,Weatherford,no,2TS7,,2TS7,,,
10118,34TX,heliport,Buckmaster Heliport,32.62710189819340,-97.78359985351560,920,NA,US,US-TX,Weatherford,no,34TX,,34TX,,,
12024,54TS,small_airport,J Bar Wc Ranch Airport,32.81119918823240,-99.85179901123050,1235,NA,US,US-TX,Weatherford,no,54TS,,54TS,,,
12194,58TX,small_airport,Tailspin Estates Airport,32.65119934082030,-97.93360137939450,830,NA,US,US-TX,Weatherford,no,58TX,,58TX,,,
13540,6TA7,small_airport,Flying K Airport,32.82849884033200,-97.77950286865230,1150,NA,US,US-TX,Weatherford,no,6TA7,,6TA7,,,
15588,98TA,heliport,Weatherford Regional Medical Center Heliport,32.74810028076170,-97.7842025756836,1050,NA,US,US-TX,Weatherford,no,98TA,,98TA,,,
15636,99XS,closed,Sam Little International Airport,32.683498,-97.805602,900,NA,US,US-TX,Weatherford,no,,,,,,99XS
17192,F78,small_airport,Horseshoe Bend Airport,32.572898864746100,-97.87249755859380,715,NA,US,US-TX,Weatherford,no,F78,,F78,,,
20730,KOJA,small_airport,Thomas P Stafford Airport,35.5448,-98.668503,1605,NA,US,US-OK,Weatherford,no,KOJA,,OJA,,,F91
24727,TA19,small_airport,Post Oak Airfield,32.674598693847700,-97.78359985351560,1020,NA,US,US-TX,Weatherford,no,TA19,,TA19,,,
24762,TA54,closed,Clear Fork Ranch Heliport,32.733299,-97.646698,850,NA,US,US-TX,Weatherford,no,,,,,,TA54
24901,TE93,heliport,Staggs Heliport,32.77180099487310,-97.73999786376950,1050,NA,US,US-TX,Weatherford,no,TE93,,TE93,,,
327257,US-0862,heliport,Air Evac 122 Heliport,35.539863,-98.662363,1595,NA,US,US-OK,Weatherford,no,4OK1,,4OK1,,,
328427,US-0908,small_airport,Peaster 01 Airport,32.850488,-97.862247,1247,NA,US,US-TX,Weatherford,no,XS53,,XS53,,,
25695,WEA,small_airport,Parker County Airport,32.7462997437,-97.6824035645,990,NA,US,US-TX,Weatherford,no,KWEA,WEA,WEA,,,
26211,XA86,small_airport,Driftwood Ranch Airport,32.56700134277340,-97.80480194091800,710,NA,US,US-TX,Weatherford,no,XA86,,XA86,,,
7498,0PS2,heliport,Marian Heliport,40.989498138427700,-75.75129699707030,1285,NA,US,US-PA,Weatherly,no,0PS2,,0PS2,,,
15147,8PA3,small_airport,Deer Meadows Airstrip,40.99589920043950,-75.7405014038086,1210,NA,US,US-PA,Weatherly,no,8PA3,,8PA3,,,
24252,PS12,small_airport,Grover Airport,40.91680145263670,-75.86630249023440,1223,NA,US,US-PA,Weatherly,no,PS12,,PS12,,,
9038,25A,small_airport,Mcminn Airport,33.73979949951170,-85.82550048828130,680,NA,US,US-AL,Weaver,no,25A,,25A,,,
20696,KO54,small_airport,Lonnie Pool Field Weaverville Airport,40.74570083618160,-122.9219970703130,2350,NA,US,US-CA,Weaverville,no,KO54,,O54,,https://en.wikipedia.org/wiki/Weaverville_Airport,
11166,46MI,small_airport,Rotors & Wings Airport,42.546101,-84.1278,910,NA,US,US-MI,Webberville,no,46MI,,46MI,,,Cloud Nine Field
1952,CYWP,medium_airport,Webequie Airport,52.9593933975,-87.3748683929,685,NA,CA,CA-ON,Webequie,yes,CYWP,YWP,,,https://en.wikipedia.org/wiki/Webequie_Airport,
8468,1MN8,small_airport,Sky Harbor Residential Airpark,44.52579879760740,-93.32689666748050,1111,NA,US,US-MN,Webster,no,1MN8,,1MN8,,,
45930,2WS2,small_airport,Connor'S Lake Landing,45.913686,-92.293239,1000,NA,US,US-WI,Webster,no,2WS2,,2WS2,,,
11943,52XS,heliport,Clear Lake Regional Medical Center Heliport,29.541000366210900,-95.12899780273440,51,NA,US,US-TX,Webster,no,52XS,,52XS,,,
16046,9WN2,small_airport,Voyager Village Airstrip,45.96659851074220,-92.14600372314450,1020,NA,US,US-WI,Webster,no,9WN2,,9WN2,,,
18460,K1D7,small_airport,The Sigurd Anderson Airport,45.292598724365200,-97.51380157470700,1854,NA,US,US-SD,Webster,no,K1D7,,1D7,,,
21826,MA83,heliport,Hubbard Regional Hospital Heliport,42.0275993347168,-71.85030364990230,510,NA,US,US-MA,Webster,no,MA83,,MA83,,,
23403,NY21,heliport,Dewitt Heliport,43.20330047607420,-77.52359771728520,375,NA,US,US-NY,Webster,no,NY21,,NY21,,,
25974,WS81,small_airport,Alpha Hotel Airport,45.948001861572300,-92.1084976196289,1000,NA,US,US-WI,Webster,no,WS81,,WS81,,,
17772,IA95,heliport,Hcph Heliport,42.458900451660200,-93.82379913330080,1080,NA,US,US-IA,Webster City,no,IA95,,IA95,,,
19720,KEBS,small_airport,Webster City Municipal Airport,42.43659973,-93.86889648,1122,NA,US,US-IA,Webster City,no,KEBS,EBS,EBS,,,
31599,HKWE,small_airport,Webuye Airport,0.6169999837875370,34.78300094604490,4300,AF,KE,KE-900,Webuye,no,HKWE,,,,,6577
316467,WED,small_airport,Wedau Airport,-10.0954,150.0826,90,OC,PG,PG-MBA,Wedau,no,,WED,WDU,,,
322420,FK-0028,small_airport,Weddell Island Airport,-51.875659,-60.90601,,SA,FK,FK-U-A,Weddell Island,no,,,,,,
22764,NC21,small_airport,Aero Plantation Airport,34.991798400878900,-80.74839782714840,634,NA,US,US-NC,Weddington,no,NC21,,NC21,,,
24455,SC57,closed,Creech Aviation Facility Airport,33.8843,-80.494796,178,NA,US,US-SC,Wedgefield,no,,,,,,SC57
323178,4AL1,heliport,Tanner East Alabama Heliport,33.294637,-85.480305,970,NA,US,US-AL,Wedowee,no,4AL1,,4AL1,,,
31271,FVWD,small_airport,Wedza Airport,-18.617000579834000,31.58300018310550,4600,AF,ZW,ZW-ME,Wedza,no,FVWD,,,,,
310104,YXWW,heliport,Wee Waa Hospital Helipad,-30.225,149.4483,632,OC,AU,AU-NSW,Wee Waa,no,YXWW,,YXWW,,,
20690,KO46,small_airport,Weed Airport,41.47489929199220,-122.4530029296880,2938,NA,US,US-CA,Weed,no,KO46,,O46,,https://en.wikipedia.org/wiki/Weed_Airport,
19346,KB16,small_airport,Whitfords Airport,43.080299377441400,-76.53839874267580,400,NA,US,US-NY,Weedsport,no,KB16,,B16,,,
13438,6NJ5,heliport,Lincoln Tunnel Heliport,40.76449966430660,-74.0238037109375,66,NA,US,US-NJ,Weehawken,no,6NJ5,,6NJ5,,,
2168,EBWE,small_airport,Weelde Air Base,51.394798278808600,4.9601898193359400,105,EU,BE,BE-VAN,Weelde,no,EBWE,,,,,
22954,NE69,small_airport,Browns Airport,40.8675003052,-96.1100006104,1183,NA,US,US-NE,Weeping Water,no,NE69,EPG,NE69,,,
26472,VCCW,small_airport,Weerawila Airport,6.25448989868,81.23519897460000,50,AS,LK,LK-3,Weerawila,yes,VCCW,WRZ,,,https://en.wikipedia.org/wiki/Weerawila_Airport,Wirawila Airport
2514,EHBD,medium_airport,Budel Airfield Kempen,51.255299,5.60139,114,EU,NL,NL-NB,Weert,no,EHBD,,,http://www.kempenairport.nl/,https://en.wikipedia.org/wiki/Kempen_Airport,"Kempen Airport, Budel Aerodrome"
2246,EDLV,medium_airport,Weeze Airport,51.6024017334,6.14216995239,106,EU,DE,DE-NW,Weeze,yes,EDLV,NRN,,http://www.airport-weeze.de/de,https://en.wikipedia.org/wiki/Airport_Weeze,"LRC, ETUL, Niederrhein Airport, RAF Laarbruch, Düsseldorf Regional"
28753,EDQW,small_airport,Weiden in der Oberpfalz Airport,49.67890167236330,12.116399765014600,1329,EU,DE,DE-BY,Weiden in der Oberpfalz,no,EDQW,,,,,Weiden/Opf. Airport
19591,KD11,small_airport,Ojibwa Airpark,43.720001220703100,-85.00279998779300,950,NA,US,US-MI,Weidman,no,KD11,,D11,,,
32646,ZSWF,medium_airport,Weifang Airport,36.646702,119.119003,,AS,CN,CN-37,Weifang,yes,ZSWF,WEF,,,https://en.wikipedia.org/wiki/Weifang_Airport,
27226,ZSWH,medium_airport,Weihai Airport,37.18709945678710,122.22899627685500,145,AS,CN,CN-37,Weihai,yes,ZSWH,WEH,,,https://en.wikipedia.org/wiki/Weihai_Airport,"Dashuipo, Yancheng Air Base"
315580,DE-0240,small_airport,Weilerswist ULM,50.7191667,6.8497222,446,EU,DE,DE-NW,Weilerswist,no,,,,,,Müggenhausen
29083,EDOU,small_airport,Weimar-Umpferstedt Airport,50.9647216796875,11.400278091430700,984,EU,DE,DE-TH,Weimar,no,EDOU,,,,,Flugplatz Weimar-Umpferstedt
328403,TT00,small_airport,Tree Top Air Airport,29.646666,-96.729444,360,NA,US,US-TX,Weimar,no,TT00,,TT00,,,
12268,5AR7,small_airport,Keller Airfield,35.68669891357420,-90.7936019897461,249,NA,US,US-AR,Weiner,no,5AR7,,5AR7,,,
15015,8M2,small_airport,Sally Wofford Airport,35.590301513671900,-90.9136962890625,245,NA,US,US-AR,Weiner,no,8M2,,8M2,,,
28754,EDGZ,small_airport,Weinheim/Bergstraße Airport,49.567501068115200,8.610555648803710,318,EU,DE,DE-BW,Weinheim,no,EDGZ,,,,,Bergstrasse
26931,YBSG,small_airport,RAAF Scherger,-12.623900413513200,142.08700561523400,145,OC,AU,AU-QLD,Weipa,no,YBSG,,,,https://en.wikipedia.org/wiki/RAAF_Scherger,
26939,YBWP,medium_airport,Weipa Airport,-12.6786003113,141.925003052,63,OC,AU,AU-QLD,Weipa,yes,YBWP,WEI,,,https://en.wikipedia.org/wiki/Weipa_Airport,
45393,3ID2,small_airport,The Last Resort Airport,46.350675,-115.977,3155,NA,US,US-ID,Weippe,no,3ID2,,3ID2,,,
12157,57XS,small_airport,Hoopes Ranch Airport,30.6968994140625,-97.56009674072270,800,NA,US,US-TX,Weir,no,57XS,,57XS,,,
9383,2FD1,small_airport,Hobby Hill STOLport,28.975500106811500,-81.918701171875,95,NA,US,US-FL,Weirsdale,no,2FD1,,2FD1,,,
11196,47FL,small_airport,Flying Exotics Airport,28.96419906616210,-81.77899932861330,150,NA,US,US-FL,Weirsdale,no,47FL,,47FL,,,
15521,97FL,small_airport,Love Field,28.96190071105960,-81.8915023803711,80,NA,US,US-FL,Weirsdale,no,97FL,,97FL,,,
325805,40WV,heliport,Weirton Medical Center Heliport,40.393778,-80.527402,1203,NA,US,US-WV,Weirton,no,40WV,,40WV,,,
26025,WV42,seaplane_base,Weirton - Steubenville Seaplane Base,40.3978004456,-80.6220016479,644,NA,US,US-WV,Weirton,no,WV42,,WV42,,,
16020,9VG,small_airport,Campbell Field,37.458499908447300,-75.87879943847660,40,NA,US,US-VA,Weirwood,no,9VG,,9VG,,https://en.wikipedia.org/wiki/Campbell_Field_Airport,
28755,EDNW,small_airport,Weißenhorn Airport,48.28944396972660,10.140277862548800,1644,EU,DE,DE-BY,Weißenhorn,no,EDNW,,,,,Weißerhorn
21026,KS87,small_airport,Weiser Municipal Airport,44.20679855,-116.961998,2120,NA,US,US-ID,Weiser,no,KS87,,S87,,,
29457,LOGW,small_airport,Unterfladnitz Airport,47.170799255371100,15.665300369262700,1296,EU,AT,AT-6,Weiz,no,LOGW,,,,,Thalerhof
43186,PL-0063,closed,Wejherowo Airfield,54.59111,18.200001,272,EU,PL,PL-PM,Wejherowo,no,,,,,,
954,CFJ2,small_airport,Wekweètì Airport,64.190804,-114.077002,1208,NA,CA,CA-NT,Wekweètì,yes,CYWE,YFJ,CFJ7,,https://en.wikipedia.org/wiki/Wekwe%C3%A8t%C3%AC_Airport,"Wekweti, Snare Lake"
9390,2FD8,small_airport,Lib Field,29.521099090576200,-81.6323013305664,50,NA,US,US-FL,Welaka,no,2FD8,,2FD8,,,
10451,3FL0,small_airport,Mount Royal Airport,29.436100006103500,-81.65670013427730,60,NA,US,US-FL,Welaka,no,3FL0,,3FL0,,,
10727,3OL8,small_airport,Harrison Airport,36.877899169921900,-95.14910125732420,805,NA,US,US-OK,Welch,no,3OL8,,3OL8,,,
17663,I25,small_airport,Welch Municipal Airport,37.41680145263670,-81.52899932861330,2118,NA,US,US-WV,Welch,no,I25,,I25,,,
21850,MD05,small_airport,Finagin Airfield,38.50749969482420,-77.12159729003910,185,NA,US,US-MD,Welcome,no,MD05,,MD05,,,
14201,7LL4,small_airport,Bakers Strip,40.1172981262207,-88.75900268554690,715,NA,US,US-IL,Weldon,no,7LL4,,7LL4,,,
2857,FAWM,small_airport,Welkom Airport,-27.996824511100000,26.663333892800000,4421,AF,ZA,ZA-FS,Welkom,no,FAWM,,,,,
1331,CNQ3,small_airport,Niagara Central Dorothy Rungeling Airport,42.979198,-79.324699,585,NA,CA,CA-ON,Welland,no,CNQ3,,CNQ3,http://www.centralairport.ca/index.html,https://en.wikipedia.org/wiki/Welland/Niagara_Central_Airport,NQ3
1379,CPB3,heliport,Welland (County General Hospital) Heliport,42.977576456400000,-79.2497491837,585,NA,CA,CA-ON,Welland,no,CPB3,,CPB3,,,PB3
14106,7FL2,small_airport,Wellborn STOLport,30.245500564575200,-82.77850341796880,180,NA,US,US-FL,Wellborn,no,7FL2,,7FL2,,,
6612,01NE,small_airport,Detour Airport,40.84360122680660,-100.65299987793000,3000,NA,US,US-NE,Wellfleet,no,01NE,,01NE,,,
9104,26KS,heliport,St Lukes Hospital Heliport,37.27840042114260,-97.3936996459961,1236,NA,US,US-KS,Wellington,no,26KS,,26KS,,,
10215,36XS,small_airport,Mill Iron Ranch South Airport,34.8918056,-100.1203194,2097,NA,US,US-TX,Wellington,no,36XS,,36XS,,,
329488,43NV,small_airport,Topaz Ranch Airport,38.72871,-119.466067,5066,NA,US,US-NV,Wellington,no,43NV,,43NV,,,
11387,4CO2,small_airport,Owl Canyon Gliderport,40.8046989440918,-104.98500061035200,5545,NA,US,US-CO,Wellington,no,4CO2,,4CO2,,,
13060,67D,small_airport,Reader-Botsford Airport,41.162601470947300,-82.20269775390630,864,NA,US,US-OH,Wellington,no,67D,,67D,,,
13225,6CO1,small_airport,Burnham Field,40.78139877319340,-104.91699981689500,5615,NA,US,US-CO,Wellington,no,6CO1,,6CO1,,,
17249,FA59,heliport,Nitv Heliport,26.634000778198200,-80.22419738769530,18,NA,US,US-FL,Wellington,no,FA59,,FA59,,,
19737,KEGT,small_airport,Wellington Municipal Airport,37.32360076904300,-97.38829803466800,1277,NA,US,US-KS,Wellington,no,KEGT,,EGT,,,
19797,KF06,small_airport,Marian Airpark,34.844033,-100.192838,2008,NA,US,US-TX,Wellington,no,,,F06,,,
23330,NV20,closed,Topaz Ranch Heliport,38.761002,-119.533997,580,NA,US,US-NV,Wellington,no,,,,,,NV20
23370,NV72,small_airport,Sweetwater (USMC) Airport,38.509799957300000,-119.217002869,6837,NA,US,US-NV,Wellington,no,NV72,,NV72,,,
23377,NV97,small_airport,Desert Creek Airport,38.684200286865200,-119.3219985961910,5358,NA,US,US-NV,Wellington,no,NV97,,NV97,,,
44672,NZAL,heliport,Avalon Heliport,-41.18669891357420,174.94400024414100,93,OC,NZ,NZ-WGN,Wellington,no,NZAL,,,,,
44812,NZKH,heliport,Kenepuru Hospital Heliport,-41.14500045776370,174.8350067138670,89,OC,NZ,NZ-WGN,Wellington,no,NZKH,,,,,
44825,NZQW,heliport,Queens Wharf Heliport,-41.28580093383790,174.77999877929700,10,OC,NZ,NZ-WGN,Wellington,no,NZQW,,,,,
44845,NZWH,heliport,Wellington Hospital Heliport,-41.30830001831060,174.7790069580080,290,OC,NZ,NZ-WGN,Wellington,no,NZWH,,,,,
5063,NZWN,large_airport,Wellington International Airport,-41.3272018433,174.804992676,41,OC,NZ,NZ-WGN,Wellington,yes,NZWN,WLG,,http://www.wellingtonairport.co.nz/,https://en.wikipedia.org/wiki/Wellington_International_Airport,
311184,YXWT,heliport,Wellington-Rygate Park Heliport,-32.5487,148.9497,1005,OC,AU,AU-NSW,Wellington,no,YXWT,,YXWT,,,
12384,5IA7,small_airport,Murphy Field Private Airport,41.42169952392580,-91.83319854736330,803,NA,US,US-IA,Wellman,no,5IA7,,5IA7,,,
13134,68Y,small_airport,Wells Municipal Airport,43.733299255371100,-93.78359985351560,1119,NA,US,US-MN,Wells,no,68Y,,68Y,,,
20392,KLWL,small_airport,Wells Municipal Airport/Harriet Field,41.117099762,-114.92199707,5772,NA,US,US-NV,Wells,no,KLWL,LWL,LWL,http://www.cityofwellsnv.com/airport.shtml,https://en.wikipedia.org/wiki/Wells_Municipal_Airport_(Nevada),
45756,25PN,heliport,Nessmuk Heliport,41.723783,-77.377636,3801,NA,US,US-PA,Wellsboro,no,25PN,,25PN,,,
12842,61PA,small_airport,Hi Line Lodge Airport,41.69449996948240,-77.16500091552730,2202,NA,US,US-PA,Wellsboro,no,61PA,,61PA,,,
20607,KN38,small_airport,Wellsboro Johnston Airport,41.72790146,-77.39649963,1892,NA,US,US-PA,Wellsboro,no,KN38,,N38,,,
26029,WV46,seaplane_base,Wellsburg Seaplane Base,40.267799377441400,-80.61730194091800,644,NA,US,US-WV,Wellsburg,no,WV46,,WV46,,,
11049,43OK,small_airport,Biggs Skypatch Airport,35.66669845581060,-96.98359680175780,1000,NA,US,US-OK,Wellston,no,43OK,,43OK,,,
14655,84OI,heliport,Grant Lifeflight 2 Heliport,39.125099182128900,-82.53820037841800,716,NA,US,US-OH,Wellston,no,84OI,,84OI,,,
23823,OK96,small_airport,Ives Airport,35.75640106201170,-97.08480072021480,1035,NA,US,US-OK,Wellston,no,OK96,,OK96,,,
7032,09KS,small_airport,Coffman Airport,38.707000732421900,-95.13829803466800,970,NA,US,US-KS,Wellsville,no,09KS,,09KS,,,
9596,2N5,small_airport,Kampel Airport,40.04840087890630,-76.97799682617190,610,NA,US,US-PA,Wellsville,no,2N5,,2N5,,,
11489,4KS1,small_airport,Amar Farms Airport,38.685298919677700,-95.03299713134770,1020,NA,US,US-KS,Wellsville,no,4KS1,,4KS1,,,
12002,54KS,small_airport,Michael Airport,38.802799224853500,-95.11270141601560,1020,NA,US,US-KS,Wellsville,no,54KS,,54KS,,,
12882,62PA,small_airport,Shreveport North Airport,40.03620147705080,-76.99549865722660,550,NA,US,US-PA,Wellsville,no,62PA,,62PA,,,
15770,9KS1,small_airport,Hartland Airport,38.6594444,-95.0922222,993,NA,US,US-KS,Wellsville,no,9KS1,,9KS1,,,
19754,KELZ,small_airport,"Wellsville Municipal Arpt,Tarantine Field",42.10950089,-77.98999786,2124,NA,US,US-NY,Wellsville,no,KELZ,ELZ,ELZ,,https://en.wikipedia.org/wiki/Wellsville_Municipal_Airport,
24661,SN85,small_airport,Fox Fire Airport,38.73360061645510,-95.10220336914060,1058,NA,US,US-KS,Wellsville,no,SN85,,SN85,,,
324447,UT90,small_airport,CAVOK Ranch Airport,41.585369,-111.9037,5155,NA,US,US-UT,Wellsville,no,UT90,,UT90,,,
324852,US-0638,small_airport,Dusty Wings Field,32.786336,-113.9386,289,NA,US,US-AZ,Wellton,no,AZ06,,AZ06,,,"az06, wellton, dusty wings"
334753,US-1390,closed,DVR (Desert Valencia Ranch) Airport,32.71346,-113.897,,NA,US,US-AZ,Wellton,no,,,,,,"wellton, dvr, desert valencia ranch"
334754,US-1391,closed,Wellton Airport,32.65499,-114.09879,,NA,US,US-AZ,Wellton,no,,,,,,wellton
4429,LOLW,small_airport,Wels Airport,48.18330001831060,14.040900230407700,1043,EU,AT,AT-4,Wels,no,LOLW,,,,,
13524,6R1,small_airport,Welsh Airport,30.241899490356400,-92.82929992675780,18,NA,US,US-LA,Welsh,no,6R1,,6R1,,,
15006,8LA9,small_airport,Koll Airport,30.357099533081100,-92.74459838867190,40,NA,US,US-LA,Welsh,no,8LA9,,8LA9,,,
7293,LS18,small_airport,Ag Aviation Airport,30.223899841308600,-92.77860260009770,21,NA,US,US-LA,Welsh,no,LS18,,LS18,,,Formerly 0LS1
21704,LS72,small_airport,Aerolite Aero Park Ultralightport,30.202999114990200,-92.81210327148440,13,NA,US,US-LA,Welsh,no,LS72,,LS72,,,
2402,EGCW,small_airport,Welshpool Airport,52.62860107421880,-3.153330087661740,233,EU,GB,GB-WLS,Welshpool,no,EGCW,,,http://www.welshpoolairport.co.uk/,https://en.wikipedia.org/wiki/Welshpool_Airport,Mid-Wales
319078,GB-0334,small_airport,Breidden Airfield,52.702036,-3.092449,,EU,GB,GB-WLS,Welshpool,no,,,,,,
319529,WHL,small_airport,Welshpool Airport,-38.682382,146.445331,35,OC,AU,AU-VIC,Welshpool,no,,WHL,,,,
41268,ZA-0072,small_airport,Tanda Tula Airport,-24.533599853500000,31.2999992371,1555,AF,ZA,ZA-NP,Welverdiend,no,FATD,TDT,,,,
315134,DE-0183,small_airport,Welzheim Airfield,48.8763,9.6537,1700,EU,DE,DE-BW,Welzheim,no,,,,http://www.flg-welzheim.de/,,
2208,EDCY,small_airport,Spremberg-Welzow Airport,51.575558,14.136944,375,EU,DE,DE-BR,Welzow,no,EDCY,,,http://www.flugplatz-welzow.de,,"Welzow, Cottbus, Senftenberg, Beton"
29093,EDUY,seaplane_base,Welzow-Sedlitzer See Seaplane Base,51.557777,14.105,361,EU,DE,DE-BR,Welzow,no,EDUY,,,,,
31389,FZGH,small_airport,Wema Airport,-0.43299999833107000,21.649999618530300,1368,AF,CD,CD-EQ,Wema,no,FZGH,,,,,
31487,FZVN,small_airport,Wembo-Nyama Airport,-4.482999801635740,24.450000762939500,1801,AF,CD,CD-KE,Wembo-Nyama,no,FZVN,,,,,
1823,CYNC,medium_airport,Wemindji Airport,53.01060104370120,-78.83110046386720,66,NA,CA,CA-QC,Wemindji,yes,CYNC,YNC,,,https://en.wikipedia.org/wiki/Wemindji_Airport,
10979,41WA,heliport,Central Washington Hospital Heliport,47.406700134277300,-120.31999969482400,878,NA,US,US-WA,Wenatchee,no,41WA,,41WA,,,
19717,KEAT,medium_airport,Pangborn Memorial Airport,47.3988990784,-120.207000732,1249,NA,US,US-WA,Wenatchee,no,KEAT,EAT,EAT,http://www.pangbornairport.com/,https://en.wikipedia.org/wiki/Pangborn_Memorial_Airport,
25812,WN17,small_airport,Hoverhawk Ranch Airport,47.33980178833010,-120.31600189209000,2450,NA,US,US-WA,Wenatchee,no,WN17,,WN17,,,
325759,PH-0027,heliport,Wenceslao Heliport,16.455614,120.332915,,AS,PH,PH-LUN,Wenceslao,no,,,,,,Wenceslao
8508,1MY1,small_airport,Carlson Agricultural Airport,45.98529815673830,-96.19439697265630,1033,NA,US,US-MN,Wendell,no,1MY1,,1MY1,,,
10056,33MN,small_airport,Swift Private Airport,46.09000015258790,-96.09700012207030,1100,NA,US,US-MN,Wendell,no,33MN,,33MN,,,
12996,65MN,small_airport,Ricks Field,45.9640998840332,-96.1498031616211,1100,NA,US,US-MN,Wendell,no,65MN,,65MN,,,
15355,92MN,small_airport,Brutlag Farms Airport,46.014400482177700,-96.10169982910160,1127,NA,US,US-MN,Wendell,no,92MN,,92MN,,,
12766,60AZ,small_airport,Wood's Airstrip,33.83810043334960,-113.4540023803710,1962,NA,US,US-AZ,Wenden,no,60AZ,,60AZ,,,
16389,AZ01,small_airport,Outback Ranch Airstrip,33.847732,-113.57106,1980,NA,US,US-AZ,Wenden,no,AZ01,,AZ01,,,
19760,KENV,medium_airport,Wendover Airport,40.7187004089,-114.03099823,4237,NA,US,US-UT,Wendover,no,KENV,ENV,ENV,,https://en.wikipedia.org/wiki/Wendover_Airport,Wendover AFB
5499,PTKK,medium_airport,Chuuk International Airport,7.461870193481450,151.84300231933600,11,OC,FM,FM-TRK,Weno Island,yes,PTKK,TKK,TKK,,https://en.wikipedia.org/wiki/Chuuk_International_Airport,
10531,3IS7,small_airport,Foote Airport,41.086700439453100,-89.09590148925780,650,NA,US,US-IL,Wenona,no,3IS7,,3IS7,,,
318119,ZPWS,small_airport,Wenshan Puzhehei Airport,23.5583,104.3255,5217,AS,CN,CN-53,Wenshan,yes,ZPWS,WNH,,,https://en.wikipedia.org/wiki/Wenshan_Puzhehei_Airport,
45529,NH96,small_airport,Wentworth Aerodrome Airport,43.873444,-71.904722,610,NA,US,US-NH,Wentworth,no,NH96,,NH96,,,
22301,MO97,heliport,SSM Health St. Joseph Hospital-Wentzville Heliport,38.822722,-90.8814833,620,NA,US,US-MO,Wentzville,no,MO97,,MO97,,,Doctors Hospital-Wentzville
22536,MU42,small_airport,Strutman Field,38.75279998779300,-90.78710174560550,620,NA,US,US-MO,Wentzville,no,MU42,,MU42,,,
311779,DE-0132,small_airport,Wenzendorf Airfield,53.3374,9.7797,229,EU,DE,DE-NI,Wenzendorf,no,,,,,http://de.wikipedia.org/wiki/Segelfluggel%C3%A4nde_Wenzendorf,
32672,ZSWZ,large_airport,Wenzhou Longwan International Airport,27.912201,120.851997,,AS,CN,CN-33,Wenzhou,yes,ZSWZ,WNZ,,,https://en.wikipedia.org/wiki/Wenzhou_Longwan_International_Airport,"温州永强机场, Wenzhou Yongqiang Airport"
322358,WEON,small_airport,Weona,35.540391,-90.596498,,NA,US,US-AR,Weona,no,WEON,,,,,
31061,FAWP,small_airport,Wepener Airport,-29.742399215698200,27.022600173950200,4755,AF,ZA,ZA-FS,Wepener,no,FAWP,,,,,
28756,EDKW,small_airport,Werdohl-Küntrop Airport,51.29722213745120,7.818333148956300,1037,EU,DE,DE-NW,Werdohl,no,EDKW,,,,,
40050,CA-0404,closed,Werenko Airport,48.799886,-93.081944,1284,NA,CA,CA-ON,Werenko,no,,,KC4,,,
12919,63PA,small_airport,Boyer Airport,40.322173,-76.100664,510,NA,US,US-PA,Wernersville,no,28PA,,28PA,,,63PA
2202,EDBW,small_airport,Werneuchen Airfield,52.631668,13.766944,262,EU,DE,DE-BR,Werneuchen,no,EDBW,,,,,
320828,DE-0369,small_airport,Flugplatz Wertheim,49.725862,9.507246,1000,EU,DE,DE-BW,Wertheim,no,,,,http://www.Flugplatz-Wertheim.de,,
28757,EDLX,small_airport,Wesel-Römerwardt Airport,51.662776947021500,6.595832824707030,72,EU,DE,DE-NW,Wesel,no,EDLX,,,,,
45826,67XS,heliport,Knapp Medical Center Heliport,26.152597,-97.980001,78,NA,US,US-TX,Weslaco,no,67XS,,67XS,,,
21161,KT65,small_airport,Mid Valley Airport,26.177601,-97.973098,70,NA,US,US-TX,Weslaco,no,KTXW,,TXW,http://www.weslacotx.gov/departments/mid-valley-airport,https://en.wikipedia.org/wiki/Mid_Valley_Airport,T65
16317,AR27,small_airport,Lollars Creek Farm Airport,35.93899917602540,-93.845703125,1430,NA,US,US-AR,Wesley,no,AR27,,AR27,,,
9146,27FL,heliport,Adventhealth Wesley Chapel Heliport,28.19471,-82.350453,60,NA,US,US-FL,Wesley Chapel,no,27FL,,27FL,,,Wesley Chapel Medical Center
311181,DE-0120,small_airport,Steinberg at Wessein Airfield,52.0838,10.018,642,EU,DE,DE-NI,Wessein,no,,,,http://www.sfg-salzdetfurth.de/unser-flugplatz/,,
30558,FAWS,small_airport,Wesselbronn Af Airport,-27.84670066833500,26.35059928894040,4301,AF,ZA,ZA-FS,Wesselsbron,no,FAWS,,,,,
18861,K4X4,small_airport,Wessington Springs Airport,44.06100082397460,-98.53089904785160,1546,NA,US,US-SD,Wessington Springs,no,K4X4,,4X4,,,
10821,3TS2,heliport,West Hospital Authority Heliport,31.816400528,-97.09279632570000,650,NA,US,US-TX,West,no,3TS2,,3TS2,,,
10939,40TS,closed,Square K Airport,31.7724,-97.132201,590,NA,US,US-TX,West,no,,,,,,40TS
11143,45TX,small_airport,West Airpark,31.752399444580100,-97.09829711914060,563,NA,US,US-TX,West,no,45TX,,45TX,,,
25529,VT33,small_airport,Yankee Kingdom Airport,44.10559844970700,-73.37789916992190,200,NA,US,US-VT,West Addison,no,VT33,,VT33,,,
10703,3OH1,small_airport,Morningstar North Airport,39.69729995727540,-84.5427017211914,982,NA,US,US-OH,West Alexandria,no,3OH1,,3OH1,,,
15496,96MO,heliport,Riverlands Area Heliport,38.86309814453130,-90.15709686279300,434,NA,US,US-MO,West Alton,no,96MO,,96MO,,,
21988,ME65,heliport,Miara Heliport,43.85850143432620,-69.88420104980470,10,NA,US,US-ME,West Bath,no,ME65,,ME65,,,
8290,1FL5,seaplane_base,West Bay Creek Seaplane Base,30.302099227905300,-85.8644027709961,,NA,US,US-FL,West Bay,no,1FL5,,1FL5,,,
9764,2T5,small_airport,Hahn Sky Ranch Airport,43.466400146484400,-88.29090118408200,1090,NA,US,US-WI,West Bend,no,2T5,,2T5,,,
19773,KETB,small_airport,West Bend Municipal Airport,43.4221992493,-88.1278991699,887,NA,US,US-WI,West Bend,no,KETB,ETB,ETB,http://www.ci.west-bend.wi.us/Airport/,https://en.wikipedia.org/wiki/West_Bend_Municipal_Airport,
300191,KZ23,heliport,West Bend Municipal Helipad,43.4219444444,-88.1333333333,881,NA,US,US-WI,West Bend,no,,,KZ23,,,
25960,WS66,heliport,Froedtert West Bend Hospital Heliport,43.355172,-88.193876,991,NA,US,US-WI,West Bend,no,WS66,,WS66,,,St Joseph's Community Hospital
6554,00NY,small_airport,Weiss Airfield,42.90010070800780,-77.49970245361330,1000,NA,US,US-NY,West Bloomfield,no,00NY,,00NY,,,
15580,98NY,small_airport,Krenzers Airport,42.883399963378900,-77.53309631347660,1035,NA,US,US-NY,West Bloomfield,no,98NY,,98NY,,,
22072,MI59,heliport,Cass Heliport,42.60100173950200,-83.39420318603520,935,NA,US,US-MI,West Bloomfield,no,MI59,,MI59,,,
23414,NY32,closed,Fort Hill Airport,42.902002,-77.547798,915,NA,US,US-NY,West Bloomfield,no,,,,,,NY32
21418,KY31,small_airport,West Branch Community Airport,44.244801,-84.179802,882,NA,US,US-MI,West Branch,no,,WBK,Y31,http://www.westbranch.com/airport.pdf,,
12471,5MA3,small_airport,Pasport Airport,42.187599182128900,-72.14309692382810,1010,NA,US,US-MA,West Brookfield,no,5MA3,,5MA3,,,
7248,0IS9,heliport,Bernardin Heliport,41.70840072631840,-89.2029037475586,830,NA,US,US-IL,West Brooklyn,no,0IS9,,0IS9,,,
14202,7LL6,small_airport,Gehant Airport,41.6974983215332,-89.14430236816410,952,NA,US,US-IL,West Brooklyn,no,7LL6,,7LL6,,,
14203,7LL7,small_airport,Delhotal Airport,41.73609924316410,-89.17230224609380,760,NA,US,US-IL,West Brooklyn,no,7LL7,,7LL7,,,
14956,8IL3,small_airport,Butler Hill RLA Restricted Landing Area,41.7380981445,-89.16249847410000,765,NA,US,US-IL,West Brooklyn,no,8IL3,,8IL3,,,
25551,VT56,small_airport,West Burke Aerodrome,44.61309814453130,-71.98090362548830,1285,NA,US,US-VT,West Burke,no,VT56,,VT56,,,
8136,19IA,small_airport,Ancam Antique Airfield,40.8568000793457,-91.20379638671880,690,NA,US,US-IA,West Burlington,no,19IA,,19IA,,,
11117,45IA,heliport,Great River Medical Center Heliport,40.810001373291000,-91.17320251464840,700,NA,US,US-IA,West Burlington,no,45IA,,45IA,,,
45665,8NK6,small_airport,Suntime Airport,42.713056,-75.168333,1650,NA,US,US-NY,West Burlington,no,8NK6,,8NK6,,,
333336,GB-0747,small_airport,Broomhill Farm Airstrip,55.843928,-3.534551,,EU,GB,GB-SCT,West Calder,no,,,,,,
9679,2OI5,heliport,West Chester Hospital Heliport,39.358282,-84.369059,886,NA,US,US-OH,West Chester,no,OH11,,OH11,,,"2OI5, University Pointe Medical Office Building, Mason"
10758,3PS0,heliport,Penn Chester County Hospital Heliport,39.970765,-75.603383,460,NA,US,US-PA,West Chester,no,3PS0,,3PS0,,,
12622,5PA4,closed,Black Swan Farm Heliport,39.966801,-75.649695,273,NA,US,US-PA,West Chester,no,,,,,,5PA4
20631,KOQN,small_airport,Brandywine Regional Airport,39.990101,-75.581902,466,NA,US,US-PA,West Chester,no,KOQN,,OQN,https://www.brandywineairport.com/,https://en.wikipedia.org/wiki/Brandywine_Airport,Formerly N99
24270,PS30,heliport,Mbb Heliport,39.98759841918950,-75.5802001953125,464,NA,US,US-PA,West Chester,no,PS30,,PS30,,,
11462,4IL6,closed,Keim Heliport,41.912498,-88.158997,795,NA,US,US-IL,West Chicago,no,,,,,,4IL6
11809,4XS3,heliport,Columbia Lakes Heliport,29.167999267578100,-95.62129974365230,30,NA,US,US-TX,West Columbia,no,4XS3,,4XS3,,,
24416,SC18,heliport,Lexington Medical Center Heliport,34.00040054321290,-81.10399627685550,340,NA,US,US-SC,West Columbia,no,SC18,,SC18,,,
10062,33NY,small_airport,Wayne Delp Airport,42.39950180053710,-73.86620330810550,800,NA,US,US-NY,West Coxsackie,no,33NY,,33NY,,,
18637,K31E,small_airport,Eagles Nest Airport,39.665401458740200,-74.30789947509770,35,NA,US,US-NJ,West Creek,no,K31E,,31E,,,
302010,US-0206,heliport,NJSP - Tukerton Station Helistop,39.6493888889,-74.2969444444,28,NA,US,US-NJ,West Creek,no,,,,,,H-NJSP-A2
11763,4V8,small_airport,Mount Snow Airport,42.927101135253900,-72.8656997680664,1953,NA,US,US-VT,West Dover,no,4V8,,4V8,,,
6771,04LL,small_airport,Brunner Airport,42.13610076904300,-88.28759765625,750,NA,US,US-IL,West Dundee,no,04LL,,04LL,,,
23435,NY53,closed,Tri County Airways Airport,42.738998,-75.300201,1150,NA,US,US-NY,West Edmeston,no,,,,,,NY53
32679,MYGW,small_airport,West End Airport,26.685300827,-78.97499847410000,5,NA,BS,BS-FP,West End,no,MYGW,WTD,,,https://en.wikipedia.org/wiki/West_End_Airport,
14573,82NJ,heliport,Graphic Scanning Corporation Heliport,40.886199951171900,-73.99120330810550,10,NA,US,US-NJ,West Englewood,no,82NJ,,82NJ,,,
23031,NH79,heliport,Falcon Station Heliport,43.04059982299810,-71.12560272216800,160,NA,US,US-NH,West Epping,no,NH79,,NH79,,,
22706,NA17,small_airport,Jacob Gust Airport,46.94269943237310,-96.92900085449220,895,NA,US,US-ND,West Fargo,no,NA17,,NA17,,,
22877,ND52,small_airport,True North Airpark,46.802799224853500,-97.01219940185550,913,NA,US,US-ND,West Fargo,no,ND52,,ND52,,,
14694,85OH,small_airport,Tounshendeaux Airport,41.413700103759800,-80.9469985961914,838,NA,US,US-OH,West Farmington,no,85OH,,85OH,,,
31179,FLWD,small_airport,West Four Airport,-13.645400047302200,25.421899795532200,3400,AF,ZM,ZM-06,West Four,no,FLWD,,,,,
15014,8LL8,heliport,Miners Memorial Health Center Heliport,37.8993988,-88.9539032,402,NA,US,US-IL,West Frankfort,no,8LL8,,8LL8,,,
7366,0MT8,heliport,Glacier Heli Tours Heliport,48.486698150634800,-113.99800109863300,3300,NA,US,US-MT,West Glacier,no,0MT8,,0MT8,,,
9586,2MT1,small_airport,Ryan Field,48.48310089111330,-113.95899963378900,3660,NA,US,US-MT,West Glacier,no,2MT1,,2MT1,,,
10058,33MT,heliport,Kruger Heliport,48.48059844970700,-114.0009994506840,3300,NA,US,US-MT,West Glacier,no,33MT,,33MT,,,
7964,15PS,heliport,Jennersville Hospital Heliport,39.822576,-75.888127,500,NA,US,US-PA,West Grove,no,15PS,,15PS,,,Jennersville Regional Hospital
320880,CRL6,seaplane_base,West Guilford/Redstone Lake Water Aerodrome,45.21,-78.546002,1198,NA,CA,CA-ON,West Guilford,no,CRL6,,CRL6,,https://en.wikipedia.org/wiki/West_Guilford/Redstone_Lake_Water_Aerodrome,
322804,US-0523,heliport,Chase Heliport,41.7896,-72.799112,700,NA,US,US-CT,West Hartford,no,CT04,,CT04,,,
6902,06PS,heliport,Cherokee Island Castle Heliport,40.40230178833010,-79.92130279541020,760,NA,US,US-PA,West Homestead,no,06PS,,06PS,,,
320721,GB-0431,small_airport,Barnards Farm,51.564,0.355231,80,EU,GB,GB-ENG,West Horndon,no,,,,http://www.barnardsfarm.eu/,,
8548,1NK4,heliport,Wagstaff Heliport,40.686798095703100,-73.3042984008789,11,NA,US,US-NY,West Islip,no,1NK4,,1NK4,,,
327254,US-0861,small_airport,Sky Ranch Airport,39.935451,-83.236398,920,NA,US,US-OH,West Jefferson,no,49OH,,49OH,,,
45864,UT87,heliport,Jordan Valley Hospital Heliport,40.590556,-111.975833,4590,NA,US,US-UT,West Jordan,no,UT87,,UT87,,,
31650,HTWK,small_airport,West Kilimanjaro Airport,-3.049999952316280,37,4300,AF,TZ,TZ-09,West Kilimanjaro,no,HTWK,,,,,
23436,NY54,heliport,Evergreen Mtn. Heliport,42.19889831542970,-74.33329772949220,1800,NA,US,US-NY,West Kill,no,NY54,,NY54,,,
7006,08R,small_airport,Richmond Airport,41.489498138427700,-71.62059783935550,130,NA,US,US-RI,West Kingston,no,08R,,08R,,,
24349,RI13,heliport,Foxridge Farm Heliport,41.49449920654300,-71.55619812011720,140,NA,US,US-RI,West Kingston,no,RI13,,RI13,,,
11077,44IN,small_airport,Rush STOLport,40.49980163574220,-86.95500183105470,675,NA,US,US-IN,West Lafayette,no,44IN,,44IN,,,
11871,51IN,small_airport,Dahnke Airport,40.492801666259800,-86.90560150146480,670,NA,US,US-IN,West Lafayette,no,51IN,,51IN,,,
14490,80G,small_airport,Tri-City Airport,40.247798919677700,-81.73600006103520,844,NA,US,US-OH,West Lafayette,no,80G,,80G,,,
14158,7IN7,small_airport,Gary Johnson Field,40.235801696777300,-87.35079956054690,570,NA,US,US-IN,West Lebanon,no,7IN7,,7IN7,,,
21987,ME64,small_airport,Skydive Lebanon Airport,43.375,-70.92919921875,365,NA,US,US-ME,West Lebanon,no,ME64,,ME64,,,
11441,4IA2,small_airport,Walker Field,41.58610153198240,-91.22019958496090,715,NA,US,US-IA,West Liberty,no,4IA2,,4IA2,,,
15727,9I3,small_airport,West Liberty Airport,37.91450119018560,-83.2520980834961,934,NA,US,US-KY,West Liberty,no,9I3,,9I3,,,
15364,92OR,heliport,Falcon Point Heliport,45.336498260500000,-122.665000916,400,NA,US,US-OR,West Linn,no,92OR,,92OR,,,
324441,US-0572,heliport,Wilson Helispot,45.343307,-122.697113,830,NA,US,US-OR,West Linn,no,57OR,,57OR,,,
13439,6NJ6,heliport,185 Monmouth Parkway Associates Helistop,40.30009841918950,-74.02539825439450,20,NA,US,US-NJ,West Long Branch,no,6NJ6,,6NJ6,,,
316475,EGKM,closed,RAF West Malling,51.27,0.4,308,EU,GB,GB-ENG,West Malling,no,EGKM,WEM,,,https://en.wikipedia.org/wiki/RAF_West_Malling,"Maidstone Airport, Kingshill, Kings Hill"
17343,FD74,small_airport,Gamebird Groves Airstrip,28.065900802612300,-80.90229797363280,36,NA,US,US-FL,West Melbourne,no,FD74,,FD74,,,
6964,08AR,closed,Crittenden Regional Hospital Heliport,35.142046,-90.190212,206,NA,US,US-AR,West Memphis,no,,,,,,08AR
19333,KAWM,small_airport,West Memphis Municipal Airport,35.1351013184,-90.2343978882,212,NA,US,US-AR,West Memphis,no,KAWM,AWM,AWM,,https://en.wikipedia.org/wiki/West_Memphis_Municipal_Airport,
23992,PA21,small_airport,West Middlesex Airport,41.16529846191410,-80.50260162353520,1100,NA,US,US-PA,West Middlesex,no,PA21,,PA21,,,
13440,6NJ7,seaplane_base,Greenwood Lake Seaplane Base,41.18009948730470,-74.33429718017580,635,NA,US,US-NJ,West Milford,no,6NJ7,,6NJ7,,,
42773,JY43,small_airport,Hill Top Airport,41.08322144,-74.33855438,921,NA,US,US-NJ,West Milford,no,JY43,,JY43,,,
18838,K4N1,small_airport,Greenwood Lake Airport,41.128200531,-74.34670257570000,791,NA,US,US-NJ,West Milford,no,4N1,,4N1,,https://en.wikipedia.org/wiki/Greenwood_Lake_Airport,
23665,OI06,small_airport,Wagner International Airport,39.99140167236330,-84.2916030883789,935,NA,US,US-OH,West Milton,no,OI06,,OI06,,,
21481,LA14,heliport,Coffman Heliport,32.5105552673,-92.1508331299,80,NA,US,US-LA,West Monroe,no,LA14,,LA14,,,
325496,US-0724,heliport,Glenwood Regional Medical Center Heliport,32.512084,-92.156778,88,NA,US,US-LA,West Monroe,no,1LA6,,1LA6,,,
8436,1MA7,heliport,Long Hill Orchard Heliport,42.4734001159668,-70.97889709472660,120,NA,US,US-MA,West Newbury,no,1MA7,,1MA7,,,
318993,ZW-0009,small_airport,West Nicholson Airport,-21.048952,29.353583,,AF,ZW,ZW-MS,West Nicholson,no,,,,,,
23022,NH69,small_airport,Windsock Village Airport,43.83060073852540,-71.18699645996090,460,NA,US,US-NH,West Ossipee,no,NH69,,NH69,,,
6704,03FL,heliport,Ranger Heliport,26.683700561523400,-80.18730163574220,20,NA,US,US-FL,West Palm Beach,no,03FL,,03FL,,,
10322,39FL,heliport,Palm Beach Sheriff's Range Heliport,26.716999053955100,-80.19979858398440,20,NA,US,US-FL,West Palm Beach,no,39FL,,39FL,,,
12038,55FL,heliport,The Murphy Company Heliport,26.687299728393600,-80.05729675292970,15,NA,US,US-FL,West Palm Beach,no,55FL,,55FL,,,
12341,5FD2,heliport,Rybovich Heliport,26.74920082092290,-80.04920196533200,10,NA,US,US-FL,West Palm Beach,no,5FD2,,5FD2,,,
12353,5FL5,heliport,Palm Beach County Judicial Center Heliport,26.714799880981400,-80.05390167236330,297,NA,US,US-FL,West Palm Beach,no,5FL5,,5FL5,,,
12942,64FD,heliport,St Marys Hospital Heliport,26.75670051574710,-80.06109619140630,22,NA,US,US-FL,West Palm Beach,no,64FD,,64FD,,,
14109,7FL5,heliport,West Palm Beach Police Station Heliport,26.714000701904300,-80.05780029296880,25,NA,US,US-FL,West Palm Beach,no,7FL5,,7FL5,,,
17269,FA82,closed,Good Samaritan Medical Center Heliport,26.724701,-80.055801,17,NA,US,US-FL,West Palm Beach,no,,,,,,FA82
17309,FD38,small_airport,Wellington Aero Club Airport,26.646499633789100,-80.29419708251950,19,NA,US,US-FL,West Palm Beach,no,FD38,,FD38,,,
17408,FL39,heliport,Wellington Medical Center Heliport,26.63759994506840,-80.20449829101560,60,NA,US,US-FL,West Palm Beach,no,FL39,,FL39,,,
17419,FL51,heliport,Wptv Heliport,26.713899612426800,-80.06420135498050,33,NA,US,US-FL,West Palm Beach,no,FL51,,FL51,,,
19818,KF45,small_airport,North Palm Beach County General Aviation Airport,26.84440041,-80.22129822,22,NA,US,US-FL,West Palm Beach,no,KF45,,F45,,,
20357,KLNA,small_airport,Palm Beach County Park Airport,26.59300041,-80.08509827,14,NA,US,US-FL,West Palm Beach,no,KLNA,LNA,LNA,,https://en.wikipedia.org/wiki/Palm_Beach_County_Park_Airport,
3766,KPBI,large_airport,Palm Beach International Airport,26.68320083618160,-80.09559631347660,19,NA,US,US-FL,West Palm Beach,yes,KPBI,PBI,PBI,,https://en.wikipedia.org/wiki/Palm_Beach_International_Airport,"MFW, South Florida"
329943,US-1047,closed,Braman Heliport,26.761451,-80.050319,0,NA,US,US-FL,West Palm Beach,no,,,,,,6FL8
25555,VT60,small_airport,Hulett Landing Strip,43.330101013183600,-73.24259948730470,720,NA,US,US-VT,West Pawlett,no,VT60,,VT60,,,
21986,ME62,small_airport,Thompson Memorial Field,44.809386,-69.470389,390,NA,US,US-ME,West Pittsfield,no,ME62,,ME62,,,Grignons Private Landing Area
11842,50MO,heliport,Ozarks Medical Center Heliport,36.738399505615200,-91.8738021850586,1006,NA,US,US-MO,West Plains,no,50MO,,50MO,,,
14796,88MO,small_airport,Howell Valley Airport,36.701698303222700,-91.80269622802730,950,NA,US,US-MO,West Plains,no,88MO,,88MO,,,
15425,94MO,small_airport,Ray's Roost Airport,36.805301666259800,-91.88130187988280,1170,NA,US,US-MO,West Plains,no,94MO,,94MO,,,
21298,KUNO,small_airport,West Plains Municipal Airport,36.87839889526370,-91.90270233154300,1228,NA,US,US-MO,West Plains,no,KUNO,,UNO,,,
8810,20PN,heliport,Msd Landing Area Heliport,40.21369934082030,-75.30819702148440,350,NA,US,US-PA,West Point,no,20PN,,20PN,,,
9727,2PS0,heliport,Rotelle Heliport,40.197898864746100,-75.29910278320310,340,NA,US,US-PA,West Point,no,2PS0,,2PS0,,,
11144,45VA,closed,Frog Hollow Farm Airport,37.695099,-76.995003,30,NA,US,US-VA,West Point,no,,,,,,45VA
11500,4KY5,small_airport,Weavers Run Airport,38.02859878540040,-83.88999938964840,550,NA,US,US-KY,West Point,no,4KY5,,4KY5,,,
19915,KFYJ,small_airport,Middle Peninsula Regional Airport,37.52119827,-76.76470184,20,NA,US,US-VA,West Point,no,KFYJ,,FYJ,,,
20458,KM83,small_airport,Mccharen Field,33.58399963378910,-88.66670227050780,205,NA,US,US-MS,West Point,no,KM83,,M83,,,
21380,KWP,seaplane_base,West Point Village Seaplane Base,57.770099639900000,-153.548995972,,NA,US,US-AK,West Point,yes,KWP,KWP,KWP,,https://en.wikipedia.org/wiki/West_Point_Village_Seaplane_Base,
329805,US-1017,heliport,United States Military Academy Heliport,41.397662,-73.956403,,NA,US,US-NY,West Point,no,NY85,,NY85,,,
45884,VG64,small_airport,Lee Field,37.5615,-76.852528,20,NA,US,US-VA,West Point,no,VG64,,VG64,,,
41529,FK-0004,small_airport,West Point Island Landing Strip,-51.345611572265600,-60.6839714050293,,SA,FK,FK-U-A,West Point Island,no,,,,,,
1070,CJF5,closed,West Poplar Airport,49.003101,-106.387001,2885,NA,CA,CA-SK,West Poplar,no,,,,,https://en.wikipedia.org/wiki/West_Poplar_Airport,"JF5, CJF5"
333082,GB-0727,small_airport,Field House Farm Airstrip UL,54.8093,-1.4946,,EU,GB,GB-ENG,West Rainton,no,,,,,,
15945,9PS5,heliport,Reading Hospital Heliport,40.33060073852540,-75.95020294189450,320,NA,US,US-PA,West Reading,no,9PS5,,9PS5,,,
12645,5PS9,closed,Tate Airport,40.385103,-75.333,570,NA,US,US-PA,West Rockhill,no,,,,,,5PS9
9350,2CL5,heliport,Kovr Heliport,38.59159851074220,-121.54499816894500,20,NA,US,US-CA,West Sacramento,no,2CL5,,2CL5,,,
21838,MA95,heliport,Bear Hole Heliport,42.12649917602540,-72.66950225830080,235,NA,US,US-MA,West Springfield,no,MA95,,MA95,,,
307929,GB-0098,closed,RAF Appledram,50.8091890506,-0.807495117188,15,EU,GB,GB-ENG,West Sussex,no,,,,,https://en.wikipedia.org/wiki/RAF_Appledram,Apuldram
307957,GB-0126,closed,RAF Bognor,50.796205,-0.702928,,EU,GB,GB-ENG,West Sussex,no,,,,,,
307989,EGUV,closed,RAF Thorney Island,50.816048,-0.9200336,12,EU,GB,GB-ENG,West Thorney,no,EGUV,,,,https://en.wikipedia.org/wiki/RAF_Thorney_Island,
45920,75WV,small_airport,Nicholson Airport,39.1659,-80.650806,1008,NA,US,US-WV,West Union,no,75WV,,75WV,,,
15582,98OI,heliport,Adams County Hospital Heliport,38.794498443603500,-83.53459930419920,956,NA,US,US-OH,West Union,no,98OI,,98OI,,,
18753,K3Y2,small_airport,George L Scott Municipal Airport,42.98509979248050,-91.79060363769530,1232,NA,US,US-IA,West Union,no,K3Y2,,3Y2,,,
19279,KAMT,small_airport,Alexander Salamon Airport,38.85150146484380,-83.56629943847660,896,NA,US,US-OH,West Union,no,KAMT,,AMT,,,
24424,SC26,small_airport,Hawks Nest Farm Airport,34.808101654052700,-82.99859619140630,1050,NA,US,US-SC,West Union,no,SC26,,SC26,,,
25266,UT23,heliport,Pioneer Valley Hospital Heliport,40.69990158081060,-111.98999786377000,4251,NA,US,US-UT,West Valley City,no,UT23,,UT23,,,
8152,19NJ,heliport,American Cyanamid Helistop,40.29180145263670,-74.6771011352539,101,NA,US,US-NJ,West Windsor,no,19NJ,,19NJ,,,
7787,12NY,closed,TGP-245 Heliport,42.873402,-75.170998,1440,NA,US,US-NY,West Winfield,no,,,,,,12NY
309197,AU-0058,heliport,Cowal Gold Mine Helipad,-33.6553,147.40036,705,OC,AU,AU-NSW,West Wyalong,no,,,,,,
27182,YWWL,medium_airport,West Wyalong Airport,-33.9371986389,147.190994263,859,OC,AU,AU-NSW,West Wyalong,no,YWWL,WWY,,,https://en.wikipedia.org/wiki/West_Wyalong_Airport,
3955,KWYS,medium_airport,Yellowstone Airport,44.68840027,-111.1179962,6649,NA,US,US-MT,West Yellowstone,no,KWYS,WYS,WYS,,https://en.wikipedia.org/wiki/Yellowstone_Airport,
330671,US-1087,seaplane_base,Yellowstone Seaplane Base,44.830001,-111.2875,6534,NA,US,US-MT,West Yellowstone,no,,,8M3,,,
6939,07ME,heliport,Westbrook Heliport,43.73830032348630,-70.33920288085940,250,NA,US,US-ME,Westbrook,no,07ME,,07ME,,,
322181,4MN6,heliport,Sanford Westbrook Clinic Heliport,44.046133,-95.440041,1432,NA,US,US-MN,Westbrook,no,4MN6,,4MN6,,,
45452,67ME,heliport,Station-Kel Heliport,43.722825,-70.346667,246,NA,US,US-ME,Westbrook,no,67ME,,67ME,,,
21957,ME26,closed,Super Cub Field,43.668098,-70.363098,85,NA,US,US-ME,Westbrook,no,,,,,,ME26
327831,US-0873,small_airport,Rolling Hills Airport,43.950842,-95.385325,1477,NA,US,US-MN,Westbrook,no,3MN4,,3MN4,,,
16919,CO65,small_airport,Geary Ranch Airport,38.045799255371100,-105.47100067138700,8300,NA,US,US-CO,Westcliffe,no,CO65,,CO65,,,
16922,CO69,heliport,Dan Riggs Memorial Heliport,38.14780044555660,-105.46700286865200,7880,NA,US,US-CO,Westcliffe,no,CO69,,CO69,,,
19435,KC08,small_airport,Silver West Airport,38.01110076904300,-105.37300109863300,8290,NA,US,US-CO,Westcliffe,no,KC08,,C08,,,
31062,FAWT,small_airport,Cape Blue Mine Airport,-29.33333396911620,22.28333282470700,3050,AF,ZA,ZA-NC,Westerberg,no,FAWT,,,,,
2296,EDXW,medium_airport,Westerland Sylt Airport,54.9132003784,8.34047031403,51,EU,DE,DE-SH,Westerland,yes,EDXW,GWT,,,https://en.wikipedia.org/wiki/Sylt_Airport,
23415,NY33,closed,Westerlo Airport,42.522301,-74.028702,1400,NA,US,US-NY,Westerlo,no,,,,,,NY33
21382,KWST,small_airport,Westerly State Airport,41.3496017456,-71.8033981323,81,NA,US,US-RI,Westerly,yes,KWST,WST,WST,,https://en.wikipedia.org/wiki/Westerly_State_Airport,
24356,RI23,heliport,Westerly Hospital Heliport,41.36259841918950,-71.82369995117190,120,NA,US,US-RI,Westerly,no,RI23,,RI23,,,
21935,MD99,small_airport,Moran Field,39.5005989074707,-79.07230377197270,2080,NA,US,US-MD,Westernport,no,MD99,,MD99,,,
28759,EDWX,small_airport,Westerstede-Felde Airport,53.288612365722700,7.930555820465090,30,EU,DE,DE-NI,Westerstede,no,EDWX,,,,,
9205,28LL,small_airport,Williamson Airport,39.46030044555660,-88.86840057373050,630,NA,US,US-IL,Westervelt,no,28LL,,28LL,,,
23741,OI97,heliport,St. Ann's Heliport,40.113399505615200,-82.94409942626950,806,NA,US,US-OH,Westerville,no,OI97,,OI97,,,
315723,DE-0253,small_airport,Montabaur Airfield,50.424,7.83,930,EU,DE,DE-RP,Westerwald,no,,,,http://www.lsc-ww.de/,,
6653,02II,small_airport,King Ultralightport,40.06230163574220,-86.21050262451170,925,NA,US,US-IN,Westfield,no,02II,,02II,,,
9719,2PN1,small_airport,Malco Airport,41.9833984375,-77.52469635009770,1990,NA,US,US-PA,Westfield,no,2PN1,,2PN1,,,
10163,35PN,heliport,Sabinsville-Consolidated Heliport,41.87260055541990,-77.52050018310550,1618,NA,US,US-PA,Westfield,no,35PN,,35PN,,,
15872,9NY2,heliport,Westfield Memorial Hospital Heliport,42.329498291015600,-79.57060241699220,756,NA,US,US-NY,Westfield,no,9NY2,,9NY2,,,
17672,I72,small_airport,Westfield Airport,40.04890060424810,-86.15779876708980,932,NA,US,US-IN,Westfield,no,I72,,I72,,,
18129,IN60,small_airport,Wilderness Field,40.017799377441400,-86.1603012084961,908,NA,US,US-IN,Westfield,no,IN60,,IN60,,,
21822,MA79,heliport,Digital Heliport,42.175899505615200,-72.72480010986330,260,NA,US,US-MA,Westfield,no,MA79,,MA79,,,
21823,MA80,small_airport,Mundale Airport,42.11980056762700,-72.81430053710940,280,NA,US,US-MA,Westfield,no,MA80,,MA80,,,
22719,NA54,small_airport,Moser Airstrip,45.95500183105470,-100.44200134277300,1750,NA,US,US-ND,Westfield,no,NA54,,NA54,,,
9678,2OI4,small_airport,Aero Lake Farm Airport,41.0452995300293,-81.9365005493164,1195,NA,US,US-OH,Westfield Center,no,2OI4,,2OI4,,,
14731,86OH,small_airport,Westfield Airport,41.01279830932620,-81.92009735107420,1044,NA,US,US-OH,Westfield Center,no,86OH,,86OH,,,
3393,KBAF,medium_airport,Westfield-Barnes Regional Airport,42.157799,-72.715599,271,NA,US,US-MA,Westfield/Springfield,no,KBAF,BAF,BAF,,https://en.wikipedia.org/wiki/Westfield-Barnes_Regional_Airport,Barnes Municipal Airport
8951,23MA,heliport,Westford Regency Heliport,42.5630989074707,-71.431396484375,255,NA,US,US-MA,Westford,no,23MA,,23MA,,,
12563,5NK2,heliport,Alexander's East Heliport,40.80139923095700,-72.6624984741211,5,NA,US,US-NY,Westhampton Beach,no,5NK2,,5NK2,,,
12564,5NK3,heliport,Westhampton Beach Heliport,40.80229949951170,-72.66290283203130,5,NA,US,US-NY,Westhampton Beach,no,5NK3,,5NK3,,,
19887,KFOK,small_airport,Francis S Gabreski Airport,40.8437004089,-72.6317977905,67,NA,US,US-NY,Westhampton Beach,no,KFOK,FOK,FOK,http://www.suffolkcountyny.gov/Departments/EconomicDevelopmentandPlanning/FrancisSGabreskiAirport.aspx,https://en.wikipedia.org/wiki/Francis_S._Gabreski_Airport,"Suffolk County AFB, Suffolk County Airport"
19607,KD64,small_airport,Westhope Municipal Airport,48.91339874267580,-101.03299713134800,1494,NA,US,US-ND,Westhope,no,KD64,,D64,,,
45844,26XA,heliport,Solana North Heliport,32.984444,-97.171667,630,NA,US,US-TX,Westlake,no,26XA,,26XA,,,
12060,55OH,heliport,Donn Heliport,41.47589874267580,-81.95069885253910,650,NA,US,US-OH,Westlake,no,55OH,,55OH,,,
21644,LS10,small_airport,Reynolds Airport,30.2721004486084,-93.31179809570310,20,NA,US,US-LA,Westlake,no,LS10,,LS10,,,
16598,CA67,small_airport,Westley Airport,37.54800033569340,-121.20500183105500,96,NA,US,US-CA,Westley,no,CA67,,CA67,,,
14832,89MO,small_airport,Bishop's Landing Airport,38.58330154418950,-94.57969665527340,1000,NA,US,US-MO,Westline,no,89MO,,89MO,,,
896,CES4,small_airport,Westlock Airport,54.1422004699707,-113.74099731445300,2214,NA,CA,CA-AB,Westlock,no,CES4,,CES4,,https://en.wikipedia.org/wiki/Westlock_Airport,ES4
320700,CHF 3.00,small_airport,Hnatko Farms Airport,54.1996,-114.123502,2053,NA,CA,CA-AB,Westlock,no,CHF 3.00,,CHF 3.00,,https://en.wikipedia.org/wiki/Westlock_(Hnatko_Farms)_Aerodrome,
311186,YWNT,heliport,Westmead NETS Base Hospital Heliport,-33.802749,150.990223,120,OC,AU,AU-NSW,Westmead,no,YWNT,,YWNT,,,
28074,YWST,heliport,Westmead Hospital Helipad,-33.80521011352540,150.98927307128900,30,OC,AU,AU-NSW,Westmead,no,YWST,,,,,
6938,07MD,small_airport,Baugher's Orchard Airport,39.608299255371100,-77.0519027709961,700,NA,US,US-MD,Westminster,no,07MD,,07MD,,,
7309,0MA9,heliport,Lleia Kyle O'Meara Heliport,42.50310134887700,-71.90840148925780,1230,NA,US,US-MA,Westminster,no,0MA9,,0MA9,,,
9845,2W2,small_airport,Clearview Airpark,39.46699905395510,-77.01740264892580,799,NA,US,US-MD,Westminster,no,2W2,,2W2,,,
10976,41TS,small_airport,Flying T Ranch Airport,33.37839889526370,-96.44830322265630,705,NA,US,US-TX,Westminster,no,41TS,,41TS,,,
11232,48CA,heliport,Huntington Beach Service Center Heliport,33.74530029296880,-118,29,NA,US,US-CA,Westminster,no,48CA,,48CA,,,
11389,4CO4,heliport,St Anthony North Heliport,39.84920120239260,-105.01799774169900,5506,NA,US,US-CO,Westminster,no,4CO4,,4CO4,,,
13052,66XS,small_airport,Baylie Airport,33.39649963378910,-96.48860168457030,685,NA,US,US-TX,Westminster,no,66XS,,66XS,,,
16635,CD04,heliport,S F Heliport,39.82080078125,-105.05400085449200,5500,NA,US,US-CO,Westminster,no,CD04,,CD04,,,
19643,KDMW,small_airport,Carroll County Regional Jack B Poage Field,39.60829926,-77.00769806,789,NA,US,US-MD,Westminster,no,KDMW,,DMW,,https://en.wikipedia.org/wiki/Carroll_County_Regional_Airport,
21824,MA81,heliport,Digital Heliport,42.55509948730470,-71.92559814453130,1100,NA,US,US-MA,Westminster,no,MA81,,MA81,,,
21919,MD76,heliport,Carroll Hospital Center Heliport,39.55899811,-76.99030304,887,NA,US,US-MD,Westminster,no,MD76,,MD76,,,
25530,VT34,small_airport,Major W. Guth STOLport,43.06010055541990,-72.49199676513670,819,NA,US,US-VT,Westminster,no,VT34,,VT34,,,
8446,1MD8,small_airport,Mayberry Run Airport,39.682899475097700,-77.09719848632810,580,NA,US,US-MD,Westminster/Silver Run,no,1MD8,,1MD8,,,
42767,24NH,heliport,Bountiful Farm,42.943611145,-72.4844436646,800,NA,US,US-NH,Westmoreland,no,24NH,,24NH,,,
9626,2NH5,small_airport,Pilgrim's Home Airfield,42.990299224853500,-72.40170288085940,600,NA,US,US-NH,Westmoreland,no,2NH5,,2NH5,,,
10303,38TN,small_airport,Sugar Grove Airport,36.625301361084000,-86.27330017089840,800,NA,US,US-TN,Westmoreland,no,38TN,,38TN,,,
10926,40MO,closed,Louise's Strip,39.422798,-94.8377,945,NA,US,US-MO,Weston,no,,,,,,40MO
17284,FD13,heliport,Cleveland Clinic Florida Hospital Heliport,26.088899612426800,-80.36579895019530,8,NA,US,US-FL,Weston,no,FD13,,FD13,,,
22257,MO51,small_airport,Schaback Strip,39.42359924316410,-94.84770202636720,1000,NA,US,US-MO,Weston,no,MO51,,MO51,,,
22563,MU71,small_airport,Vandahl Airport,39.34749984741210,-94.85800170898440,1020,NA,US,US-MO,Weston,no,MU71,,MU71,,,
322180,US-0418,heliport,St Clare's Hospital Heliport,44.889456,-89.57905,1282,NA,US,US-WI,Weston,yes,WI88,,WI88,,,
26006,WV23,closed,Louis Bennett Field,39.091499,-80.469498,1014,NA,US,US-WV,Weston,no,,,WV23,,,WV23
26057,WV75,heliport,Stonewall Jackson Memorial Hospital Heliport,39.04819869995120,-80.49210357666020,101,NA,US,US-WV,Weston,no,WV75,,WV75,,,
10439,3F5,small_airport,Forest Hill Airport,42.91230010986330,-84.67549896240230,775,NA,US,US-MI,Westphalia,no,3F5,,3F5,,,
18075,IN04,closed,N'Meier Airport,38.846401,-87.240303,495,NA,US,US-IN,Westphalia,no,,,,,,IN04
7785,12NK,small_airport,Westport Airport,44.15840148925780,-73.43289947509770,276,NA,US,US-NY,Westport,no,12NK,,12NK,,,
7912,14S,small_airport,Westport Airport,46.89690017700200,-124.10099792480500,14,NA,US,US-WA,Westport,no,14S,,14S,,,
9535,2MA6,seaplane_base,Flynns Noquochoke Seaplane Base,41.59360122680660,-71.06529998779300,,NA,US,US-MA,Westport,no,2MA6,,2MA6,,,
10587,3MA5,small_airport,Westport Airport,41.5432014465332,-71.0353012084961,80,NA,US,US-MA,Westport,no,3MA5,,3MA5,,,
11401,4F1,small_airport,Westport Airport,36.2223014831543,-96.34609985351560,900,NA,US,US-OK,Westport,no,4F1,,4F1,,,
12477,5MA9,small_airport,Allen's Pond Airport,41.511199951171900,-71.0280990600586,60,NA,US,US-MA,Westport,no,5MA9,,5MA9,,,
46577,CA-0443,small_airport,Brier Island Airstrip,44.25700308650000,-66.3593530655,,NA,CA,CA-NS,Westport,no,,,,,,
1490,CRL2,small_airport,Westport / Rideau Lakes Airport,44.666665176600000,-76.3966673613,500,NA,CA,CA-ON,Westport,no,CRL2,,CRL2,,https://en.wikipedia.org/wiki/Westport/Rideau_Lakes_Airport,RL2
21752,MA07,small_airport,Friends Ultralightport,41.56760025024410,-71.11920166015630,131,NA,US,US-MA,Westport,no,MA07,,MA07,,,
21825,MA82,seaplane_base,Westport Seaplane Base,41.64929962158200,-71.12590026855470,131,NA,US,US-MA,Westport,no,MA82,,MA82,,,
21830,MA87,closed,Horseneck Seaplane Base,41.509801,-71.038101,0,NA,US,US-MA,Westport,no,,,,,,MA87
29134,EGEW,small_airport,Westray Airport,59.3502998352,-2.95000004768,29,EU,GB,GB-SCT,Westray,yes,EGEW,WRY,,,https://en.wikipedia.org/wiki/Westray_Airport,
25675,WA83,seaplane_base,Westsound/Wsx Seaplane Base,48.6179008484,-122.95300293,,NA,US,US-WA,Westsound,no,WA83,WSX,WA83,,,
8549,1NK5,small_airport,Westtown Airport,41.36149978637700,-74.52429962158200,600,NA,US,US-NY,Westtown,no,1NK5,,1NK5,,,
12410,5IN6,small_airport,Orthodontic Strip,41.587501525878900,-86.90280151367190,805,NA,US,US-IN,Westville,no,5IN6,,5IN6,,,
18288,JY29,heliport,Westwood Heliport,40.98419952392580,-74.01609802246090,47,NA,US,US-NJ,Westwood,no,JY29,,JY29,,,
914,CEX3,small_airport,Wetaskiwin Regional Airport,52.965000152600000,-113.411003113,2509,NA,CA,CA-AB,Wetaskiwin,no,CEX3,,CEX3,,https://en.wikipedia.org/wiki/Wetaskiwin_Regional_Airport,EX3
1627,CWC4,heliport,Wetaskiwin (Hospital & Care Centre) Heliport,52.9884341311,-113.368070126,2494,NA,CA,CA-AB,Wetaskiwin,no,CWC4,,CWC4,,,WC4
32687,EGVT,small_airport,Wethersfield Air Base,51.971901,0.509444,322,EU,GB,GB-ENG,Wethersfield,no,EGVT,,,,https://en.wikipedia.org/wiki/RAF_Wethersfield,RAF Wethersfield
333999,GB-0829,small_airport,Whitehall Farm Airstrip,51.9682,0.5224,,EU,GB,GB-ENG,Wethersfield (Essex),no,,,,,,
15133,8OL1,small_airport,Petes Airpark,35.227901458740200,-96.22949981689450,771,NA,US,US-OK,Wetumka,no,8OL1,,8OL1,,,
23819,OK92,heliport,Wetumka Hospital Heliport,35.2333984375,-96.23860168457030,745,NA,US,US-OK,Wetumka,no,OK92,,OK92,,,
9301,2AL3,small_airport,Emerald Mountain Airport,32.45539855957030,-86.11920166015630,365,NA,US,US-AL,Wetumpka,no,2AL3,,2AL3,,,
18332,K08A,small_airport,Wetumpka Municipal Airport,32.5293998718,-86.32820129390000,197,NA,US,US-AL,Wetumpka,no,08A,,08A,,,
312694,DE-0143,small_airport,Garbenheimer Wiesen Airfield,50.574,8.529,490,EU,DE,DE-HE,Wetzlar,no,,,,http://www.vfl-wetzlar.de/,,
2161,EBKT,medium_airport,Wevelgem Airport,50.817199707,3.20472002029,64,EU,BE,BE-VWV,Wevelgem,no,EBKT,KJK,,http://www.kortrijkairport.be,https://en.wikipedia.org/wiki/Kortrijk-Wevelgem_International_Airport,
71,AYWK,medium_airport,Wewak International Airport,-3.58383011818,143.669006348,19,OC,PG,PG-ESW,Wewak,yes,AYWK,WWK,,,https://en.wikipedia.org/wiki/Wewak_International_Airport,
15940,9PS0,heliport,Zokaites Heliport,40.60900115966800,-80.03299713134770,1268,NA,US,US-PA,Wexford,no,9PS0,,9PS0,,,
44000,EICD,closed,Castlebridge Airport,52.369131,-6.451021,79,EU,IE,IE-WX,Wexford,no,,,,,,"WEX, EICD"
25510,VT14,small_airport,Axinn Airport,44.045101165771500,-73.1895980834961,450,NA,US,US-VT,Weybridge,no,VT14,,VT14,,,
334360,VT80,heliport,Monument Farms Dairy Bittersweet Falls Road Heliport,44.036531,-73.213869,394,NA,US,US-VT,Weybridge,no,VT80,,VT80,,,
1064,CJE3,small_airport,Weyburn Airport,49.6974983215332,-103.8010025024410,1934,NA,CA,CA-SK,Weyburn,no,CJE3,,CJE3,,https://en.wikipedia.org/wiki/Weyburn_Airport,JE3
1566,CSU5,small_airport,Weymontachie Airport,47.9369010925293,-73.81719970703130,1171,NA,CA,CA-QC,Weymontachie,no,CSU5,,CSU5,,https://en.wikipedia.org/wiki/Weymontachie_Airport,SU5
1962,CYXN,medium_airport,Whale Cove Airport,62.24000167850000,-92.59809875490000,40,NA,CA,CA-NU,Whale Cove,yes,CYXN,YXN,,,https://en.wikipedia.org/wiki/Whale_Cove_Airport,
15514,96Z,seaplane_base,Whale Pass Seaplane Float Harbor Facility,56.116299,-133.121994,0,NA,US,US-AK,Whale Pass,no,,WWP,96Z,,,"North Whale SPB, North Whale Pass"
25471,VG37,small_airport,Umphlett Airstrip,36.589298248291000,-76.63800048828130,75,NA,US,US-VA,Whaleyville,no,VG37,,VG37,,,
29128,EGEH,small_airport,Whalsay Airport,60.377498626709000,-0.9255560040473940,100,EU,GB,GB-SCT,Whalsay,no,EGEH,WHS,,,,
44846,NZJR,heliport,Whangarei Hospital Heliport,-35.73469924926760,174.30299377441400,154,OC,NZ,NZ-NTL,Whangarei,no,NZJR,,,,,
12851,61XS,small_airport,Shanks Agricultural Strip,29.324399948120100,-96.02079772949220,100,NA,US,US-TX,Wharton,no,61XS,,61XS,,,
19163,K94R,small_airport,Lackey Aviation Airport,29.26609992980960,-96.00769805908200,90,NA,US,US-TX,Wharton,no,K94R,,94R,,,
19304,KARM,small_airport,Wharton Regional Airport,29.254299163800000,-96.1544036865,100,NA,US,US-TX,Wharton,no,KARM,WHT,ARM,,https://en.wikipedia.org/wiki/Wharton_Regional_Airport,
24816,TE07,heliport,Gulf Coast Medical Center Heliport,29.34440040588380,-96.11720275878910,110,NA,US,US-TX,Wharton,no,TE07,,TE07,,,
13815,74NC,small_airport,Benton Farm Airport,35.09640121459960,-76.62969970703130,9,NA,US,US-NC,Whartonville,no,74NC,,74NC,,,
28464,CEQ8,seaplane_base,Whatì Seaplane Base,63.14191,-117.275791,870,NA,CA,CA-NT,Whati,no,CEQ8,,CEQ8,,https://en.wikipedia.org/wiki/What%C3%AC_Water_Aerodrome,"EQ8, Lac La Martre"
874,CEM3,small_airport,Whatì Airport,63.13169860839840,-117.24600219726600,882,NA,CA,CA-NT,Whatì,yes,CEM3,YLE,CEM3,,https://en.wikipedia.org/wiki/What%C3%AC_Airport,EM3
11391,4CO6,heliport,Lutheran Medical Center Heliport,39.766700744628900,-105.08999633789100,5500,NA,US,US-CO,Wheat Ridge,no,4CO6,,4CO6,,,
13107,68IN,small_airport,Alley Oop Airport,41.12139892578130,-86.99749755859380,715,NA,US,US-IN,Wheatfield,no,68IN,,68IN,,,
18130,IN61,small_airport,Flying J Airport,41.264198303222700,-87.1343994140625,653,NA,US,US-IN,Wheatfield,no,IN61,,IN61,,,
13290,6II8,small_airport,Godahavit Airport,38.65449905395510,-87.28279876708980,495,NA,US,US-IN,Wheatland,no,6II8,,6II8,,,
19715,KEAN,small_airport,Phifer Airfield,42.0555,-104.929001,4776,NA,US,US-WY,Wheatland,no,KEAN,EAN,EAN,,,
22258,MO52,small_airport,Skyriders Airport,37.86669921875,-93.38349914550780,900,NA,US,US-MO,Wheatland,no,MO52,,MO52,,,
22883,ND68,small_airport,Vining Airport,46.9557991027832,-97.30120086669920,980,NA,US,US-ND,Wheatland,no,ND68,,ND68,,,
26087,WY25,small_airport,Snell - North Laramie River Airport,42.3069000244,-104.93699646,4490,NA,US,US-WY,Wheatland,no,WY25,,WY25,,,
26113,WY59,small_airport,Two Bar Ranch Airport,41.933365,-105.090824,5110,NA,US,US-WY,Wheatland,no,WY59,,WY59,,,
333083,GB-0728,small_airport,Greenhills Farm Airstrip,54.7482,-1.3914,,EU,GB,GB-ENG,Wheatley Hill,no,,,,,,East Durham Microlights
12829,61MN,closed,Traverse Air Airport,45.9536,-96.400902,1002,NA,US,US-MN,Wheaton,no,,,,,,61MN
19775,KETH,small_airport,Wheaton Municipal Airport,45.78049850463870,-96.54350280761720,1025,NA,US,US-MN,Wheaton,no,KETH,,ETH,,,
22630,MY68,small_airport,Johnsons Aero Repair Airport,45.777198791503900,-96.39140319824220,1028,NA,US,US-MN,Wheaton,no,MY68,,MY68,,,
10053,33LL,small_airport,Isley Airport,39.087501525878900,-88.28890228271480,595,NA,US,US-IL,Wheeler,no,33LL,,33LL,,,
21159,KT59,small_airport,Wheeler Municipal Airport,35.45109939575200,-100.19999694824200,2470,NA,US,US-TX,Wheeler,no,KT59,,T59,,,
9875,2WV6,heliport,West Virginia State Police Heliport,40.0531005859375,-80.72470092773440,682,NA,US,US-WV,Wheeling,no,2WV6,,2WV6,,,
20061,KHLG,medium_airport,Wheeling Ohio County Airport,40.1749992371,-80.6463012695,1195,NA,US,US-WV,Wheeling,no,KHLG,HLG,HLG,,https://en.wikipedia.org/wiki/Wheeling_Ohio_County_Airport,
26026,WV43,seaplane_base,Warwood - Martins Ferry Seaplane Base,40.0931015015,-80.7179031372,623,NA,US,US-WV,Wheeling,no,WV43,,WV43,,,
26032,WV49,heliport,Center Wheeling Parking Garage Heliport,40.06010055541990,-80.722900390625,730,NA,US,US-WV,Wheeling,no,WV49,,WV49,,,
28465,CAE5,seaplane_base,Whistler/Green Lake Water Aerodrome,50.1436004639,-122.948997498,2100,NA,CA,CA-BC,Whistler,yes,CAE5,YWS,CAE5,,https://en.wikipedia.org/wiki/Whistler/Green_Lake_Water_Aerodrome,AE5
653,CAW4,heliport,Whistler (Hospital) Heliport,50.1202526317,-122.95467943,2182,NA,CA,CA-BC,Whistler,no,CAW4,,CAW4,,,AW4
676,CBE9,heliport,Whistler (Municipal) Heliport,50.168377378100000,-122.904754132,2116,NA,CA,CA-BC,Whistler,no,CBE9,,CBE9,,,BE9
13419,6NC5,small_airport,Thompson Farms Airport,36.01789855957030,-77.66190338134770,100,NA,US,US-NC,Whitakers,no,6NC5,,6NC5,,,
29121,EGCT,small_airport,Tilstock Airfield,52.93080139160160,-2.646389961242680,301,EU,GB,GB-ENG,Whitchurch,no,EGCT,,,,https://en.wikipedia.org/wiki/Tilstock_Airfield,"RAF Whitchurch Heath, RAF Tilstock"
320587,CA-0635,small_airport,Stouffville Airport,43.9931,-79.2674,972,NA,CA,CA-ON,Whitchurch–Stouffville,no,CBB2,,CBB2,,,
327832,20SD,small_airport,Lutgen Airport,44.448888,-96.505786,1764,NA,US,US-SD,White,no,20SD,,20SD,,,
14240,7MN5,closed,White Bear Lake Seaplane Base,45.091599,-92.9991,925,NA,US,US-MN,White Bear Lake,no,,,7MN5,,,7MN5
13391,6MN9,small_airport,Benson Airport,45.116600036621100,-92.99600219726560,942,NA,US,US-MN,White Bear Township,no,6MN9,,6MN9,,,
11876,51LA,small_airport,R T Leblanc Airport,30.14349937438970,-91.1531982421875,15,NA,US,US-LA,White Castle,no,51LA,,51LA,,,
7471,0OR8,small_airport,Sutton on Rogue Airport,42.484798431396500,-122.86599731445300,1260,NA,US,US-OR,White City,no,0OR8,,0OR8,,,
10343,39OR,heliport,Croman Heliport,42.42919921875,-122.8759994506840,1280,NA,US,US-OR,White City,no,39OR,,39OR,,,
1625,CWC1,small_airport,White City (Radomsky) Airport,50.439701080322300,-104.30599975585900,2020,NA,CA,CA-SK,White City,no,CWC1,,CWC1,,https://en.wikipedia.org/wiki/White_City_(Radomsky)_Airport,WC1
23539,OG25,small_airport,Firefly Ranch Airfield,42.511199951171900,-122.92400360107400,1310,NA,US,US-OR,White City,no,OG25,,OG25,,,
10986,42C,small_airport,White Cloud Airport,43.55970001220700,-85.77420043945310,914,NA,US,US-MI,White Cloud,no,42C,,42C,,,
13446,6NK2,small_airport,Meerwarth Airport,42.950599670410200,-73.33470153808590,640,NA,US,US-NY,White Creek,no,6NK2,,6NK2,,,
7367,0MT9,small_airport,Lone Hawk Airport,48.483299255371100,-114.49299621582000,3284,NA,US,US-MT,White Fish,no,0MT9,,0MT9,,,
24117,PN07,heliport,Cranes-N-Lifts Inc Heliport,41.03089904785160,-75.77850341796880,1360,NA,US,US-PA,White Haven,no,PN07,,PN07,,,
16437,AZ50,small_airport,Triangle Airpark,35.715472,-114.47844,2419,NA,US,US-AZ,White Hills,no,AZ50,,AZ50,,,"white hills, triangle"
8651,1SD5,small_airport,Drake Farm Airport,43.76860046386720,-98.79869842529300,1659,NA,US,US-SD,White Lake,no,1SD5,,1SD5,,,
25794,PAWM,small_airport,White Mountain Airport,64.689201355,-163.412994385,267,NA,US,US-AK,White Mountain,no,PAWM,WMO,WMO,,https://en.wikipedia.org/wiki/White_Mountain_Airport,
22826,NC86,small_airport,Rocking A Farm Airport,34.73360061645510,-78.75309753417970,58,NA,US,US-NC,White Oak,no,NC86,,NC86,,,
3589,KHPN,medium_airport,Westchester County Airport,41.06700134277340,-73.70760345458980,439,NA,US,US-NY,White Plains,yes,KHPN,HPN,HPN,,https://en.wikipedia.org/wiki/Westchester_County_Airport,"Manhattan, New York City, NYC"
23210,NK84,heliport,Safe Flight Instrument Corp. Heliport,41.08110046386720,-73.71330261230470,415,NA,US,US-NY,White Plains,no,NK84,,NK84,,,
10850,3VA7,small_airport,White Post Airport,39.062599182128900,-78.09140014648440,610,NA,US,US-VA,White Post,no,3VA7,,3VA7,,,
14375,7Q7,small_airport,White River Municipal Airport,43.56169891357420,-100.74199676513700,2151,NA,US,US-SD,White River,no,7Q7,,7Q7,,,
28467,CNJ8,seaplane_base,White River Seaplane Base,48.6269,-85.223297,1380,NA,CA,CA-ON,White River,no,CNJ8,YWR,CNJ8,,https://en.wikipedia.org/wiki/White_River_Water_Aerodrome,
673,CBD9,heliport,White Saddle Ranch Heliport,51.741853,-124.738887,2925,NA,CA,CA-BC,White Saddle Ranch,no,CBD9,,CBD9,,,BD9
11105,44WA,heliport,Skyline Hospital Ems Heliport,45.722198486328100,-121.4729995727540,1000,NA,US,US-WA,White Salmon,no,44WA,,44WA,,,
13877,75WA,small_airport,Port Elsner Airport,45.802101135253900,-121.4800033569340,610,NA,US,US-WA,White Salmon,no,75WA,,75WA,,,
25659,WA66,small_airport,Spring Creek Ranch Airport,45.80540084838870,-121.5009994506840,475,NA,US,US-WA,White Salmon,no,WA66,,WA66,,,
21381,KWSD,small_airport,Condron Army Air Field,32.34149933,-106.4029999,3934,NA,US,US-NM,White Sands,no,KWSD,WSD,WSD,,,
25385,US-VA53,heliport,Nichols Heliport,37.647499084472700,-76.43299865722660,22,NA,US,US-VA,White Stone,no,VA53,,VA53,,,
25448,VG13,heliport,White Stone Heliport,37.64870071411130,-76.38760375976560,50,NA,US,US-VA,White Stone,no,VG13,,VG13,,,
25450,VG15,heliport,White Stone Family Practice Heliport,37.64419937133790,-76.39520263671880,50,NA,US,US-VA,White Stone,no,VG15,,VG15,,,
331080,58MT,small_airport,Galt Ranch Airport,46.544277,-111.069988,5156,NA,US,US-MT,White Sulphur Springs,no,58MT,,58MT,,,
19078,K7S6,small_airport,White Sulphur Springs Airport,46.50410079956060,-110.91300201416000,5061,NA,US,US-MT,White Sulphur Springs,no,K7S6,,7S6,,,
22411,MT13,closed,White Sulphur Springs Ranger Station Heliport,46.5513,-110.913001,5160,NA,US,US-MT,White Sulphur Springs,no,,,,,,MT13
314921,SSU,closed,Greenbrier Airport,37.775,-80.336,1795,NA,US,US-WV,White Sulphur Springs,no,,SSU,,,,
10942,40WA,heliport,Signal Peak Lookout Heliport,46.23320007324220,-121.13500213623000,5111,NA,US,US-WA,White Swan,no,40WA,,40WA,,,
2000,CYZU,medium_airport,Whitecourt Airport,54.14390182495120,-115.78700256347700,2567,NA,CA,CA-AB,Whitecourt,no,CYZU,YZU,,,https://en.wikipedia.org/wiki/Whitecourt_Airport,
20051,KHIE,small_airport,Mount Washington Regional Airport,44.367637,-71.544502,1074,NA,US,US-NH,Whitefield,no,KHIE,HIE,HIE,http://www.mountwashingtonairport.com/,https://en.wikipedia.org/wiki/Mount_Washington_Regional_Airport,
12190,58S,small_airport,Whitefish Airport,48.40800094604490,-114.30000305175800,3066,NA,US,US-MT,Whitefish,no,58S,,58S,,,
46302,79WI,heliport,Whitehall Fire Department Heliport,44.367614,-91.332728,835,NA,US,US-WI,Whitehall,no,79WI,,79WI,,,
22438,MT41,small_airport,Jefco Skypark Airport,45.878299713134800,-112.11699676513700,4510,NA,US,US-MT,Whitehall,no,MT41,,MT41,,,
45771,PN82,heliport,West Coplay Heliport,40.674283,-75.5051,375,NA,US,US-PA,Whitehall,no,PN82,,PN82,,,
979,CFP8,small_airport,Whitehorse / Cousins Airport,60.8117343999,-135.182132721,2200,NA,CA,CA-YT,Whitehorse,no,CFP8,,CFP8,,https://en.wikipedia.org/wiki/Whitehorse/Cousins_Airport,FP8
1970,CYXY,medium_airport,Whitehorse / Erik Nielsen International Airport,60.7095985413,-135.067001343,2317,NA,CA,CA-YT,Whitehorse,yes,CYXY,YXY,,,https://en.wikipedia.org/wiki/Whitehorse_International_Airport,
12057,55NJ,balloonport,Garden State Balloonport,40.633399963378900,-74.76629638671880,185,NA,US,US-NJ,Whitehouse,no,55NJ,,55NJ,,,
310046,US-0233,small_airport,Nuttall Airport,32.2246017456,-95.19580078120000,425,NA,US,US-TX,Whitehouse,no,,,,,,
13441,6NJ8,small_airport,Lance Airport,40.591800689697300,-74.79129791259770,275,NA,US,US-NJ,Whitehouse Station,no,6NJ8,,6NJ8,,,
15084,8NJ1,heliport,Merck Whitehouse Station Heliport,40.6398010254,-74.76540374760000,185,NA,US,US-NJ,Whitehouse Station,no,8NJ1,,8NJ1,,,
14587,82WI,small_airport,Triple S Ranch Airport,44.149200439453100,-87.81439971923830,855,NA,US,US-WI,Whitelaw,no,82WI,,82WI,,,
15941,9PS1,heliport,Eagle Lodge-Lafayette Hill Heliport,40.076499938964800,-75.25520324707030,352,NA,US,US-PA,Whitemarsh Township,no,9PS1,,9PS1,,,
19690,KE24,small_airport,Whiteriver Airport,33.8125,-109.9869995,5153,NA,US,US-AZ,Whiteriver,no,E24,WTR,E24,,https://en.wikipedia.org/wiki/Whiteriver_Airport,
8664,1TA6,heliport,Morningstar Ranch Heliport,33.70090103149410,-96.9135971069336,737,NA,US,US-TX,Whitesboro,no,1TA6,,1TA6,,,
10211,36TX,small_airport,Bevoni-Flying B Airport,33.72090148925780,-96.86139678955080,763,NA,US,US-TX,Whitesboro,no,36TX,,36TX,,,
13133,68XS,small_airport,Margaritaville Airport,33.72129821777340,-96.86979675292970,750,NA,US,US-TX,Whitesboro,no,68XS,,68XS,,,
13172,69XS,small_airport,Brushy Creek Airport,33.75339889526370,-96.8302001953125,715,NA,US,US-TX,Whitesboro,no,69XS,,69XS,,,
45820,T29,small_airport,Flying H Ranch Airport,33.632267,-96.9408,760,NA,US,US-TX,Whitesboro,no,T29,,T29,,,
24787,TA80,small_airport,U U Ranch Airport,33.8931999206543,-96.9281005859375,740,NA,US,US-TX,Whitesboro,no,TA80,,TA80,,,
7269,0KY9,heliport,Pine Mountain Aero Heliport,37.11360168457030,-82.80359649658200,1300,NA,US,US-KY,Whitesburg,no,0KY9,,0KY9,,,
10469,3GA6,small_airport,Erlen Airport,33.57059860229490,-84.89830017089840,1044,NA,US,US-GA,Whitesburg,no,3GA6,,3GA6,,,
11875,51KY,heliport,Appalachian Regional Hospital Heliport,37.11320114135740,-82.8124008178711,1220,NA,US,US-KY,Whitesburg,no,51KY,,51KY,,,
12365,5GA2,small_airport,Lyons Landing Airport,33.57320022583010,-84.90969848632810,1080,NA,US,US-GA,Whitesburg,no,5GA2,,5GA2,,,
13263,6GA5,small_airport,Kolibri Airport,33.57820129394530,-84.90689849853520,1100,NA,US,US-GA,Whitesburg,no,6GA5,,6GA5,,,
14125,7GA9,small_airport,Smisson Field,33.57059860229490,-84.89779663085940,1044,NA,US,US-GA,Whitesburg,no,7GA9,,7GA9,,,
15450,95GA,small_airport,Mcintosh Field,33.45589828491210,-84.94300079345700,771,NA,US,US-GA,Whitesburg,no,95GA,,95GA,,,
312520,BRG,closed,Whitesburg Municipal Airport,37.2219,-82.8742,1985,NA,US,US-KY,Whitesburg,no,,BRG,,,,"Isom Airport, Letcher County"
9646,2NK8,heliport,Landmark Plaza Heliport,40.78200149536130,-73.82569885253910,80,NA,US,US-NY,Whitestone,no,2NK8,,2NK8,,,
329066,US-0954,small_airport,Dulpicate - Shelter Cove Airport,40.028916,124.071117,,NA,US,US-CA,Whitethorn,no,,,K0Q5,,,
19537,KCPC,small_airport,Columbus County Municipal Airport,34.27289963,-78.71499634,99,NA,US,US-NC,Whiteville,no,KCPC,,CPC,,https://en.wikipedia.org/wiki/Columbus_County_Municipal_Airport,
10877,3WI5,small_airport,Clover Valley Airport,42.8125,-88.72650146484380,850,NA,US,US-WI,Whitewater,no,3WI5,,3WI5,,,
12756,5Y3,small_airport,Gutzmer's Twin Oaks Airport,42.853599548339800,-88.75980377197270,821,NA,US,US-WI,Whitewater,no,5Y3,,5Y3,,,
16697,CD75,heliport,Whitewater Heliport,38.900001525878900,-108.48400115966800,6208,NA,US,US-CO,Whitewater,no,CD75,,CD75,,,
334361,US-1295,heliport,Keystone XL Whitewater Heliport,48.7575,-107.524167,2774,NA,US,US-MT,Whitewater,no,MT26,,MT26,,,
1256,CKY2,small_airport,Whitewood Airport,50.3347783814,-102.274475098,2000,NA,CA,CA-SK,Whitewood,no,CKY2,,CKY2,,https://en.wikipedia.org/wiki/Whitewood_Airport,KY2
45409,2IG3,closed,Horseshoe Casino Heliport,41.687626,-87.500755,586,NA,US,US-IN,Whiting,no,,,,,,2IG3
17735,IA58,small_airport,B-8 Farms Airport,42.1150016784668,-96.1719970703125,1063,NA,US,US-IA,Whiting,no,IA58,,IA58,,,
15445,95CA,small_airport,Bonel Airport,35.66910171508790,-120.54900360107400,1030,NA,US,US-CA,Whitley Garden,no,95CA,,95CA,,,
8774,1Z1,small_airport,Grand Canyon Bar Ten Airstrip,36.258614,-113.231159,4100,NA,US,US-AZ,Whitmore,no,,GCT,1Z1,,https://en.wikipedia.org/wiki/Grand_Canyon_Bar_10_Airport,
22042,MI29,small_airport,Gooding Airport,42.376399993896500,-83.7927017211914,920,NA,US,US-MI,Whitmore Lake,no,MI29,,MI29,,,
10262,37XS,small_airport,Lake Whitney Country Club Airport,32.00019836425780,-97.41699981689450,627,NA,US,US-TX,Whitney,no,37XS,,37XS,,,
13993,78TE,small_airport,Rocking A Airport,32.02040100097660,-97.33110046386720,635,NA,US,US-TX,Whitney,no,78TE,,78TE,,,
17190,F50,closed,Lake Whitney State Park Airport,31.9252,-97.3647,564,NA,US,US-TX,Whitney,no,KF50,,F50,,,
334325,GB-0858,small_airport,Upfield Farm Airstrip,51.5516,-2.8917,,EU,GB,GB-WLS,Whitson,no,,,,,,
314876,YDDI,heliport,Daydream Island Helipad,-20.2603,148.8136,8,OC,AU,AU-QLD,Whitsundays,no,YDDI,,YDDI,,,
25063,TS47,small_airport,Rock Creek Ranch Airport,32.9687,-98.0119,1130,NA,US,US-TX,Whitt,no,,,5TX,,,TS47
329976,2MI6,small_airport,The Farm Airport,44.28743,-83.760913,809,NA,US,US-MI,Whittemore,no,2MI6,,2MI6,,,
9953,31CL,heliport,Presbyterian Intercommunity Hospital Heliport,33.971099853515600,-118.04900360107400,196,NA,US,US-CA,Whittier,no,31CL,,31CL,,,
14689,85NC,small_airport,Reagans Roost Ultralightport,35.42919921875,-83.16680145263670,2080,NA,US,US-NC,Whittier,no,85NC,,85NC,,,
17876,PAWR,small_airport,Whittier Airport,60.777198791503900,-148.7220001220700,30,NA,US,US-AK,Whittier,no,PAWR,,IEM,,,
24958,TN42,heliport,Whitwell Medical Center Heliport,35.20289993286130,-85.51940155029300,750,NA,US,US-TN,Whitwell,no,TN42,,TN42,,,
25003,TN89,small_airport,Possum Bottom Airport,35.2584,-85.452698,700,NA,US,US-TN,Whitwell,no,TN89,,TN89,,,Matthews Airport
334000,GB-0830,small_airport,Stockbridge Airstrip,50.6043,-1.2709,,EU,GB,GB-ENG,Whitwell (IoW),no,,,,,,
334453,US-1312,heliport,US Border Patrol Ajo Station Helipad,32.27764,-112.73965,,NA,US,US-AZ,Why,no,,,,,,
27170,YWHA,medium_airport,Whyalla Airport,-33.05889892578130,137.51400756835900,41,OC,AU,AU-SA,Whyalla,yes,YWHA,WYA,,,https://en.wikipedia.org/wiki/Whyalla_Airport,
1943,CYVV,medium_airport,Wiarton Airport,44.7458,-81.107201,729,NA,CA,CA-ON,Wiarton,no,CYVV,YVV,,http://wiartonairport.ca/,https://en.wikipedia.org/wiki/Wiarton_Airport,
22417,MT20,small_airport,Hollstein Ranch Airport,46.858299255371100,-104.0989990234380,2778,NA,US,US-MT,Wibaux,no,MT20,,MT20,,,
41523,SYWI,small_airport,Wichabai Airport,2.8666698932647700,-59.53329849243160,518,SA,GY,GY-UT,Wichabai,no,SYWI,,,,,
6878,06KS,heliport,Riverside Hospital Airlift Heliport,37.69580078125,-97.37249755859380,1332,NA,US,US-KS,Wichita,no,06KS,,06KS,,,
8891,22KS,heliport,St Francis Regional Medical Center Heliport,37.70000076293950,-97.33280181884770,1382,NA,US,US-KS,Wichita,no,22KS,,22KS,,,
10094,34KS,heliport,St Joseph Heliport,37.67169952392580,-97.29119873046880,1350,NA,US,US-KS,Wichita,no,34KS,,34KS,,,
11079,44KS,small_airport,Vankirk Airport,37.61029815673830,-97.1624984741211,1350,NA,US,US-KS,Wichita,no,44KS,,44KS,,,
11261,48SN,heliport,Lifeteam 20 Heliport,37.747501373291000,-97.22100067138670,1420,NA,US,US-KS,Wichita,no,48SN,,48SN,,,
11491,4KS4,heliport,Police Heliport,37.66419982910160,-97.34870147705080,1290,NA,US,US-KS,Wichita,no,4KS4,,4KS4,,,
13688,71K,small_airport,Westport Airport,37.647499084472700,-97.3844985961914,1290,NA,US,US-KS,Wichita,no,71K,,71K,,,
13724,72K,small_airport,Westport Auxiliary Airport,37.60419845581060,-97.35890197753910,1270,NA,US,US-KS,Wichita,no,72K,,72K,,,
14992,8KS6,heliport,Wesley Medical Center Heliport,37.69559860229490,-97.29840087890630,1440,NA,US,US-KS,Wichita,no,8KS6,,8KS6,,,
15772,9KS3,heliport,Kake Helistop,37.71030044555660,-97.38839721679690,1330,NA,US,US-KS,Wichita,no,9KS3,,9KS3,,,
19225,KAAO,small_airport,Colonel James Jabara Airport,37.74760056,-97.22109985,1421,NA,US,US-KS,Wichita,no,KAAO,,AAO,,https://en.wikipedia.org/wiki/Colonel_James_Jabara_Airport,
19363,KBEC,small_airport,Beech Factory Airport,37.694499969500000,-97.21499633790000,1408,NA,US,US-KS,Wichita,no,KBEC,BEC,BEC,,https://en.wikipedia.org/wiki/Beech_Factory_Airport,
19477,KCEA,small_airport,Cessna Aircraft Field,37.648601532,-97.2506027222,1378,NA,US,US-KS,Wichita,no,KCEA,CEA,CEA,,https://en.wikipedia.org/wiki/Cessna_Aircraft_Field,
3601,KIAB,medium_airport,Mc Connell Air Force Base,37.62189865,-97.26820374,1371,NA,US,US-KS,Wichita,no,KIAB,IAB,IAB,http://public.mcconnell.amc.af.mil/,https://en.wikipedia.org/wiki/McConnell_Air_Force_Base,"22nd Air Refueling Wing, 931st Air Refueling Group, 184th Intelligence Wing"
3605,KICT,large_airport,Wichita Eisenhower National Airport,37.649899,-97.433098,1333,NA,US,US-KS,Wichita,yes,KICT,ICT,ICT,,https://en.wikipedia.org/wiki/Wichita_Dwight_D._Eisenhower_National_Airport,
20246,KK32,small_airport,Riverside Airport,37.74810028076170,-97.40670013427730,1335,NA,US,US-KS,Wichita,no,KK32,,K32,,,
324925,US-0656,small_airport,McMaster Gliderport,37.761289,-97.177341,1403,NA,US,US-KS,Wichita,no,29KS,,29KS,,,
45809,29TA,small_airport,Cactus Hill Airport,33.873053,-98.645906,1040,NA,US,US-TX,Wichita Falls,no,29TA,,29TA,,,
14422,7TX0,small_airport,Tom Danaher Airport,33.82820129394530,-98.57270050048830,986,NA,US,US-TX,Wichita Falls,no,7TX0,,7TX0,,,
21154,KCWC,small_airport,Kickapoo Downtown Airport,33.85779953,-98.49040222,1003,NA,US,US-TX,Wichita Falls,no,KCWC,KIP,CWC,http://www.wichitafallstx.gov/index.aspx?nid=704,https://en.wikipedia.org/wiki/Kickapoo_Downtown_Airport,"KT47, T47, JKP"
19801,KF14,small_airport,Wichita Valley Airport,33.947701,-98.616699,1005,NA,US,US-TX,Wichita Falls,no,,,F14,,,
3898,KSPS,large_airport,Sheppard Air Force Base-Wichita Falls Municipal Airport,33.9888,-98.491898,1019,NA,US,US-TX,Wichita Falls,yes,KSPS,SPS,SPS,http://www.flywichitafalls.net/,https://en.wikipedia.org/wiki/Wichita_Falls_Municipal_Airport,Sheppard Air Force Base
13651,70K,small_airport,Maize Airport,37.76559829711910,-97.43589782714840,1336,NA,US,US-KS,Wichita/Maize/,no,70K,,70K,,,
2458,EGPC,medium_airport,Wick Airport,58.458900451660200,-3.09306001663208,126,EU,GB,GB-SCT,Wick,yes,EGPC,WIC,,http://www.hial.co.uk/wick-airport.html,https://en.wikipedia.org/wiki/Wick_Airport,
8930,23AZ,small_airport,Moreton Airpark,34.019500732421900,-112.82599639892600,2455,NA,US,US-AZ,Wickenburg,no,23AZ,,23AZ,,,
16451,AZ64,small_airport,Rio Vista Hills Airport,33.952301025390600,-112.68699645996100,2225,NA,US,US-AZ,Wickenburg,no,AZ64,,AZ64,,,
16480,AZ93,heliport,Toyota Arizona Proving Ground Heliport,33.743099212646500,-112.76799774169900,1660,NA,US,US-AZ,Wickenburg,no,AZ93,,AZ93,,,
19691,KE25,small_airport,Wickenburg Municipal Airport,33.96889877,-112.7990036,2377,NA,US,US-AZ,Wickenburg,no,E25,,E25,http://www.ci.wickenburg.az.us/108/Airport,https://en.wikipedia.org/wiki/Wickenburg_Municipal_Airport,
334731,US-1368,closed,Forepaugh Airport,33.950035,-112.996745,,NA,US,US-AZ,Wickenburg,no,,,44E,,,"wickenburg, echeverria, forepaugh"
334774,US-1403,closed,Flying E Guest Ranch Airport,33.94767,-112.79262,,NA,US,US-AZ,Wickenburg,no,,,,,,"wickenburg, flying e"
28052,YWKH,closed,Wickham Airport,-20.675792387900000,117.125072479,,OC,AU,AU-WA,Wickham,no,YWKH,,,,,
43127,EDWP,small_airport,Wiefelstede/Conneforde Airport,53.321388244628900,8.073332786560060,33,EU,DE,DE-NI,Wiefelstede,no,EDWP,,,,,
43151,PL-0033,small_airport,Wielbark Highway Strip,53.36669921875,20.791900634765600,436,EU,PL,PL-WN,Wielbark,no,,,,,,
4428,LOAN,medium_airport,Wiener Neustadt East Airport,47.843299865722700,16.260099411010700,896,EU,AT,AT-3,Wiener Neustadt,no,LOAN,,,http://www.loan-airport.at/,,
43813,LOAW,heliport,Öamtc Heliport,47.84555435180660,16.252777099609400,900,EU,AT,AT-3,Wiener Neustadt,no,,,,,,
29483,LOXN,small_airport,Wiener Neustadt West Airport,47.84000015258790,16.22170066833500,935,EU,AT,AT-3,Wiener Neustadt,no,LOXN,,,,,
11810,4XS5,small_airport,Scrappin Valley Airport,31.12190055847170,-93.8030014038086,350,NA,US,US-TX,Wiergate,no,4XS5,,4XS5,,,
299505,NL-0024,small_airport,Middenmeer Aerodrome,52.815368824100000,5.0216960907,-14,EU,NL,NL-NH,Wieringermeer,no,,,,http://www.vliegclubwieringermeer.nl/,https://en.wikipedia.org/wiki/Middenmeer_Aerodrome,
314153,DE-0156,small_airport,Laufenselden Airfield,50.2217,7.9985,1316,EU,DE,DE-HE,Wiesbaden,no,,,,http://www.segelflug-laufenselden.de/,,
2747,ETOU,medium_airport,Wiesbaden Army Airfield,50.049800872802700,8.325400352478030,461,EU,DE,DE-HE,Wiesbaden,no,ETOU,WIE,,,https://en.wikipedia.org/wiki/Wiesbaden_Army_Airfield,
43796,LOKI,heliport,Wietersdorf Heliport,46.8477783203125,14.536944389343300,2070,EU,AT,AT-2,Wietersdorf,no,,,,,,
318167,GB-0310,small_airport,Bryn Gates Airfield,53.513189,-2.625593,,EU,GB,GB-ENG,Wigan,no,,,,,,
